[{"lat": 40.686761, "lon": -73.992092, "name": "Cobble Hill Yoga", "address": "39 Wyckoff St, Brooklyn, NY 11201"}, {"lat": 40.7034494, "lon": -73.989425, "name": "Community Vinyasa Yoga", "address": "33 Washington St, Brooklyn, NY 11201"}, {"lat": 40.6775491, "lon": -73.9573049, "name": "Shambhala Yoga & Dance Center", "address": "1000 Dean St, Brooklyn, NY 11238"}, {"lat": 40.7275043, "lon": -73.9800645, "name": "Verde Yoga", "address": "New York, NY 10009"}, {"lat": 40.7288039, "lon": -73.999946, "name": "Sacred Sounds Yoga", "address": "163 Bleecker St, New York, NY 10012"}, {"lat": 40.7442709, "lon": -73.95388919999999, "name": "Pranavah Yoga Studio", "address": "47-46 Vernon Blvd, Long Island City, NY 11101"}, {"lat": 40.6647106, "lon": -73.9897386, "name": "Align Brooklyn", "address": "579 5th Ave, Brooklyn, NY 11215"}, {"lat": 40.7346229, "lon": -73.9988171, "name": "Modo Yoga NYC", "address": "434 6th Ave, New York, NY 10011"}, {"lat": 40.7610102, "lon": -73.92377859999999, "name": "Yoga Agora", "address": "33-02 Broadway, Astoria, NY 11106"}, {"lat": 40.7199715, "lon": -73.9830297, "name": "Stanton Street Yoga", "address": "196A Stanton St, New York, NY 10002"}, {"lat": 40.744567, "lon": -73.9528511, "name": "The Yoga Room", "address": "1014 47th Rd, Long Island City, NY 11101"}, {"lat": 40.7336828, "lon": -73.99265849999999, "name": "Yoga Vida", "address": "99 University Pl, New York, NY 10003"}, {"lat": 40.7144019, "lon": -74.0079137, "name": "Kula Yoga Project", "address": "28 Warren St, New York, NY 10007"}, {"lat": 40.7186175, "lon": -74.00477420000001, "name": "Lyons Den Power Yoga", "address": "279 Church St, New York, NY 10013"}, {"lat": 40.6633945, "lon": -73.9841959, "name": "Third Eye Yoga", "address": "433 7th Ave, Brooklyn, NY 11215"}, {"lat": 40.6717205, "lon": -73.957354, "name": "Brooklyn Yoga Collective", "address": "795 Franklin Ave, Brooklyn, NY 11238"}, {"lat": 40.7073497, "lon": -73.9428956, "name": "Makara Studio", "address": "164 Montrose Ave, Brooklyn, NY 11206"}, {"lat": 40.75419, "lon": -73.9917475, "name": "Om Factory Yoga", "address": "265 W 37th St, New York, NY 10018"}, {"lat": 40.7317189, "lon": -73.9550761, "name": "Greenpoint Yoga", "address": "145 Java St, Brooklyn, NY 11222"}, {"lat": 40.72311699999999, "lon": -73.9467109, "name": "Breakin Boundaries", "address": "11 Newel St, Brooklyn, NY 11222"}, {"lat": 40.7286618, "lon": -73.97877989999999, "name": "Savasana Station", "address": "212 Ave B, New York, NY 10009"}, {"lat": 40.68832, "lon": -73.993329, "name": "Mala Yoga", "address": "162 Court St, Brooklyn, NY 11201"}, {"lat": 40.7857285, "lon": -73.9721844, "name": "Upper West Side Yoga and Wellness", "address": "75B W 85th St, New York, NY 10024"}, {"lat": 40.7384858, "lon": -73.9829694, "name": "Yoga to the People II", "address": "297 Third Ave, New York, NY 10010"}, {"lat": 40.747274, "lon": -73.972662, "name": "mang?Oh yoga", "address": "322 E 39th St, New York, NY 10016"}, {"lat": 40.7418976, "lon": -73.995485, "name": "Yogamaya", "address": "135 W 20th St, New York, NY 10011"}, {"lat": 40.724695, "lon": -73.98172679999999, "name": "East Yoga", "address": "96 Ave B, New York, NY 10009"}, {"lat": 40.6930522, "lon": -73.97312409999999, "name": "Lucky Lotus Yoga", "address": "334 Myrtle Ave, Brooklyn, NY 11205"}, {"lat": 40.74594159999999, "lon": -73.94228799999999, "name": "Yoga Studio 6 LIC", "address": "27-28 Thomson Ave, Long Island City, NY 11101"}, {"lat": 40.8006442, "lon": -73.9676089, "name": "Life In Motion", "address": "2744 Broadway, New York, NY 10025"}, {"lat": 40.7269561, "lon": -73.9952466, "name": "Yoga Vida NYC", "address": "666 Broadway, New York, NY 10012"}, {"lat": 40.76381900000001, "lon": -73.988292, "name": "Sonic Yoga", "address": "754 9th Ave, New York, NY 10019"}, {"lat": 40.759633, "lon": -73.96261799999999, "name": "Yo Yoga!", "address": "344 E 59th St, Manhattan, NY 10022"}, {"lat": 40.6807787, "lon": -73.9964631, "name": "Prema Yoga Brooklyn", "address": "236 Carroll St, Brooklyn, NY 11231"}, {"lat": 40.74947600000001, "lon": -73.88950849999999, "name": "Mimi for Me Yoga, Mind & Body Wellness Studio", "address": "76-11 37th Ave, Jackson Heights, NY 11372"}, {"lat": 40.705452, "lon": -73.92474399999999, "name": "Daya Yoga Studio", "address": "360 Jefferson St, Bushwick, NY 11237"}, {"lat": 40.7044045, "lon": -73.9863494, "name": "Abhaya Yoga", "address": "48 John Street, Brooklyn, NY 11201"}, {"lat": 40.688819, "lon": -73.955951, "name": "Sacred Studio", "address": "197 Clifton Pl, Brooklyn, NY 11216"}, {"lat": 40.7362817, "lon": -73.95500439999999, "name": "Usha Veda Yoga", "address": "1104 Manhattan Ave, Brooklyn, NY 11222"}, {"lat": 40.723723, "lon": -73.9801904, "name": "Alphabet City Sanctuary", "address": "638 E 6th St, Manhattan, NY 10009"}, {"lat": 40.7271756, "lon": -73.89330509999999, "name": "69th Lane Studio", "address": "69-71 Grand Ave, Queens, NY 11378"}, {"lat": 40.6839709, "lon": -73.9318559, "name": "NESH Mind Body Soul", "address": "521 Halsey St, Brooklyn, NY 11233"}, {"lat": 40.7247788, "lon": -74.0093162, "name": "Shri Yoga", "address": "Greenwich St and Canal St, New York, NY 10013"}, {"lat": 40.7290107, "lon": -73.98928950000001, "name": "Yoga to the People", "address": "12 St. Marks Pl, New York, NY 10003"}, {"lat": 40.71391000000001, "lon": -73.948143, "name": "Abhyasa Yoga Center", "address": "628 Metropolitan Ave, Brooklyn, NY 11211"}, {"lat": 40.7556299, "lon": -73.92245, "name": "The Yoga Room", "address": "38-01 35th Ave, Astoria, NY 11101"}, {"lat": 40.74573549999999, "lon": -73.9894343, "name": "Yoga Union", "address": "37 W 28th St, Manhattan, NY 10001"}, {"lat": 40.71349499999999, "lon": -73.96231569999999, "name": "SYNCStudio BKLYN", "address": "133 S 2nd St, New York, NY 11249"}, {"lat": 40.716809, "lon": -73.9618163, "name": "Sangha Yoga Shala", "address": "107 N 3rd St, Brooklyn, NY 11211"}, {"lat": 40.6943946, "lon": -73.9935558, "name": "Area Yoga", "address": "144 Montague St, Brooklyn, NY 11201"}, {"lat": 40.67987, "lon": -73.9751792, "name": "Brooklyn Yoga School", "address": "82 6th Ave, Brooklyn, NY 11217"}, {"lat": 40.7850045, "lon": -73.97526529999999, "name": "NY Loves Yoga", "address": "140 W 83rd St, New York, NY 10024"}, {"lat": 40.685499, "lon": -73.932277, "name": "Amayasana Yoga", "address": "269 Stuyvesant Ave, Brooklyn, NY 11221"}, {"lat": 40.723776, "lon": -73.988494, "name": "The Bhakti Center", "address": "25 1st Ave, Manhattan, NY 10003"}, {"lat": 40.7172774, "lon": -73.9624474, "name": "Kula Yoga Project", "address": "85 N 3rd St, Brooklyn, NY 11211"}, {"lat": 40.7385652, "lon": -74.00137629999999, "name": "Integral Yoga Institute", "address": "227 W 13th St, New York, NY 10011"}, {"lat": 40.6773135, "lon": -73.981214, "name": "Bend & Bloom Yoga", "address": "708 Sackett St, Brooklyn, NY 11217"}, {"lat": 40.7328475, "lon": -73.9926074, "name": "Ishta Yoga", "address": "56 E 11th St, New York, NY 10003"}, {"lat": 40.6829835, "lon": -73.9825804, "name": "Yogasana Center For Yoga", "address": "118 3rd Ave, Brooklyn, NY 11217"}, {"lat": 40.7751406, "lon": -73.9124042, "name": "The Giving Tree Yoga Studio", "address": "22-56 31st St, Astoria, NY 11105"}, {"lat": 40.7367262, "lon": -73.9870258, "name": "Atmananda Yoga Sequence", "address": "67 Irving Place, New York, NY 10003"}, {"lat": 40.7463267, "lon": -74.0060893, "name": "Yoga 216", "address": "511 W 20th St, New York, NY 10011"}, {"lat": 40.687022, "lon": -73.974403, "name": "Melt Massage & Bodywork", "address": "84 Lafayette Ave, Brooklyn, NY 11217"}, {"lat": 40.686828, "lon": -73.96279799999999, "name": "Dou Yoga", "address": "214 Greene Ave, Brooklyn, NY 11238"}, {"lat": 40.7189647, "lon": -73.9531331, "name": "Yoga to the People", "address": "211 N 11th St, Brooklyn, NY 11211"}, {"lat": 40.6609503, "lon": -73.983526, "name": "Jaya Yoga Center", "address": "1626 8th Ave, Brooklyn, NY 11215"}, {"lat": 40.7259917, "lon": -73.9957071, "name": "Strala Yoga", "address": "632 Broadway, New York, NY 10012"}, {"lat": 40.65754, "lon": -73.97645419999999, "name": "YogaSole", "address": "254 Windsor Pl, Brooklyn, NY 11215"}, {"lat": 40.742839, "lon": -74.000275, "name": "Laughing Lotus Yoga Center", "address": "636 Sixth Ave. 3rd Fl (entrance is on 19th St), New York, NY 10011"}, {"lat": 40.71118999999999, "lon": -73.962484, "name": "East River Pilates Studio", "address": "141 S 5th St, Brooklyn, NY 11211"}, {"lat": 40.675269, "lon": -73.9690801, "name": "Plaza Wellness", "address": "36 Plaza St, Brooklyn, NY 11238"}, {"lat": 40.7214094, "lon": -73.98891569999999, "name": "Bikram Yoga Lower East Side", "address": "172 Allen St, New York, NY 10002"}, {"lat": 40.8122312, "lon": -73.9509577, "name": "Unity Yoga", "address": "350 Saint Nicholas Ave, New York, NY 10027"}, {"lat": 40.7343495, "lon": -73.9910744, "name": "Jivamukti Yoga School", "address": "841 Broadway, New York, NY 10003"}, {"lat": 40.718802, "lon": -74.0020849, "name": "Bikram Yoga SoHo", "address": "404-406 Broadway, New York, NY 10013"}, {"lat": 40.720642, "lon": -73.99807, "name": "Golden Bridge Yoga NYC", "address": "253 Centre St, New York, NY 10013"}, {"lat": 40.7541394, "lon": -73.99066909999999, "name": "Ziva Meditation", "address": "252 W 38th St, Manhattan, NY 10018"}, {"lat": 40.7478595, "lon": -73.9936283, "name": "YoGanesh YoGa", "address": "208 W 29th St, New York, NY 10001"}, {"lat": 40.7478472, "lon": -73.992491, "name": "Swanand Yoga", "address": "171 W 29th St, New York, NY 10001"}, {"lat": 40.8069228, "lon": -73.94399469999999, "name": "Harlem Yoga Studio", "address": "44 W 125th St, New York, NY 10027"}, {"lat": 40.71842059999999, "lon": -73.9976166, "name": "I.AM.YOU Studio", "address": "132 Mulberry St, New York, NY 10013"}, {"lat": 40.7576154, "lon": -73.9679058, "name": "Bikram Grand Central", "address": "226 E 54th St, New York, NY 10022"}, {"lat": 40.7431682, "lon": -73.99175819999999, "name": "Yoga Shanti", "address": "46 W 24th St, New York, NY 10010"}, {"lat": 40.70525, "lon": -73.93091299999999, "name": "Jai Yoga Arts", "address": "47 Thames St, Brooklyn, NY 11237"}, {"lat": 40.7241833, "lon": -73.9925189, "name": "Deep Root Yoga & Massage", "address": "Houston &amp; Bowery St, New York, NY 10003"}, {"lat": 40.6910575, "lon": -73.9919525, "name": "Yoga Pole Studio", "address": "43 Schermerhorn St, Brooklyn, NY 11201"}, {"lat": 40.7474248, "lon": -73.97659, "name": "Studio 360", "address": "557 3rd Ave, New York, NY 10016"}, {"lat": 40.677656, "lon": -73.81961799999999, "name": "Yogashakti Yoga Center", "address": "114-41 Lefferts Blvd, South Ozone Park, NY 11420"}, {"lat": 40.720896, "lon": -74.001037, "name": "YogaWorks Soho", "address": "459 Broadway, New York, NY 10013"}, {"lat": 40.5843966, "lon": -73.9452943, "name": "Hot Spot Yoga", "address": "28 Dooley St, Brooklyn, NY 11235"}, {"lat": 40.7456927, "lon": -73.9968485, "name": "Sivananda Yoga Vedanta Center", "address": "243 W 24th St, New York, NY 10011"}, {"lat": 40.7758217, "lon": -73.9474512, "name": "New York Yoga", "address": "1629 York Ave, New York, NY 10028"},{"lat": 40.70517890000001, "lon": -74.0080186, "name": "Yoga with Fern", "address": "75 Wall St, New York, NY 10005"}, {"lat": 40.7388319, "lon": -73.98153370000001, "name": "Holding Space", "address": "49 W 24th St, 8th Fl, New York, NY 10010"}, {"lat": 40.6100798, "lon": -73.9834994, "name": "Brooklyn Vindhya Yoga", "address": "44 Ave O, Brooklyn, NY 11204"}, {"lat": 40.8255471, "lon": -73.9478341, "name": "Brahman Yoga Harlem", "address": "501 W 145th St, New York, NY 10031"}, {"lat": 40.756969, "lon": -73.980638, "name": "Your-Movement Wellness Center", "address": "43 W 46th St, New York, NY 10036"}, {"lat": 40.661958, "lon": -73.961151, "name": "Bikram Yoga Prospect Park", "address": "507 Flatbush Ave, Brooklyn, NY 11225"}, {"lat": 40.7100732, "lon": -74.0070554, "name": "Bikram Yoga", "address": "121 Fulton St, New York, NY 10038"}, {"lat": 40.70582, "lon": -73.922134, "name": "Goodyoga", "address": "36 Wyckoff Ave, Brooklyn, NY 11237"}, {"lat": 40.7818469, "lon": -73.9797494, "name": "Pure Yoga", "address": "204 W 77 St, New York, NY 10024"}, {"lat": 40.7660539, "lon": -73.97793399999999, "name": "Exhale Central Park South", "address": "150 Central Park S, New York, NY 10019"}, {"lat": 40.7441334, "lon": -73.9948735, "name": "Joschi", "address": "163 W 23rd St, New York, NY 10011"}, {"lat": 40.693586, "lon": -73.9665323, "name": "Move With Grace", "address": "469 Myrtle Ave, Brooklyn, NY 11205"}, {"lat": 40.7859464, "lon": -73.97418739999999, "name": "Amanda Rose Wellness", "address": "New York, NY 10024"}, {"lat": 40.77708579999999, "lon": -73.9558856, "name": "Bikram Yoga NYC", "address": "173 E 83rd St, New York, NY 10028"}, {"lat": 40.6801028, "lon": -73.9968265, "name": "Area Yoga", "address": "389 Court St, Brooklyn, NY 11231"}, {"lat": 40.6925522, "lon": -73.9934896, "name": "Body & Brain Brooklyn Heights", "address": "130 Clinton St, Brooklyn, NY 11201"}, {"lat": 40.7719049, "lon": -73.958608, "name": "YogaWorks Eastside", "address": "1319 3rd Ave, New York, NY 10021"}, {"lat": 40.8469304, "lon": -73.9396805, "name": "Mind Body Soul Yoga", "address": "350 Fort Washington Ave, New York, NY 10033"}, {"lat": 40.74345, "lon": -73.991461, "name": "Studio Anya", "address": "49 W 24th St, New York, NY 10010"}, {"lat": 40.7520278, "lon": -73.9915664, "name": "Bikram Yoga Herald Square", "address": "139 W 35th St, New York, NY 10123"}, {"lat": 40.733075, "lon": -73.991478, "name": "The Shala Yoga House", "address": "815 Broadway, New York, NY 10003"}, {"lat": 40.644914, "lon": -73.961462, "name": "Yoga For You", "address": "1819 Beverley Rd, Brooklyn, NY 11226"}, {"lat": 40.724731, "lon": -73.992791, "name": "Lila Yoga, Dharma & Wellness", "address": "302 Bowery, New York, NY 10012"}, {"lat": 40.6763899, "lon": -73.99294809999999, "name": "The Holstee Work/Shop", "address": "98 4th St, Brooklyn, NY 11231"}, {"lat": 40.8254233, "lon": -73.94899, "name": "Bikram Yoga Harlem", "address": "518 W 145th St, New York, NY 10031"}, {"lat": 40.6941739, "lon": -73.99290599999999, "name": "Yoga People", "address": "160 Montague St, Brooklyn, NY 11201"}, {"lat": 40.7628067, "lon": -73.9661501, "name": "Ishta Yoga", "address": "1026 3rd Ave, New York, NY 10065"}, {"lat": 40.7391204, "lon": -73.9919184, "name": "YogaWorks Union Square", "address": "138 5th Ave, New York, NY 10011"}, {"lat": 40.6236427, "lon": -74.0253149, "name": "Bikram Yoga Bay Ridge", "address": "8302 5th Ave, Brooklyn, NY 11209"}, {"lat": 40.775415, "lon": -73.947146, "name": "Regenerate Fitness NYC", "address": "1616 York Ave, New York, NY 10028"}, {"lat": 40.67353120000001, "lon": -73.9726522, "name": "Exhale Healing Arts", "address": "71 8th Ave, Brooklyn, NY 11217"}, {"lat": 40.778883, "lon": -73.953439, "name": "Pure Yoga", "address": "203 E 86th St, New York, NY 10028"}, {"lat": 40.6114712, "lon": -74.1415924, "name": "Yoga and Melody LLC", "address": "2329 Victory Blvd, Staten Island, NY 10314"}, {"lat": 40.6681669, "lon": -73.9800645, "name": "Hunt Parr Yoga", "address": "Brooklyn, NY 11215"}, {"lat": 40.6440677, "lon": -73.97585409999999, "name": "Church Ave Yoga and Bodywork Center", "address": "338 E 5th St, Brooklyn, NY 11218"}, {"lat": 40.8032309, "lon": -73.95585899999999, "name": "Land Yoga", "address": "2116 Frederick Douglass Blvd, Manhattan, NY 10026"}, {"lat": 40.7974208, "lon": -73.970798, "name": "Krav Maga Experts - Upper West Side", "address": "250 W 100 St, Manhattan, NY 10025"}, {"lat": 40.6668235, "lon": -73.9819186, "name": "Bodhisattva Yoga", "address": "442 9th St, Brooklyn, NY 11215"}, {"lat": 40.7213156, "lon": -73.8450773, "name": "Bamboomoves Forest Hills", "address": "107-40 Queens Blvd, Forest Hills, NY 11375"}, {"lat": 40.739112, "lon": -73.99381699999999, "name": "The Movement", "address": "32 W 18th St, New York, NY 10011"}, {"lat": 40.7108471, "lon": -73.9046975, "name": "Nova New York Yoga & Event Studio", "address": "59-07 Bleecker St, Ridgewood, NY 11385"}, {"lat": 40.6655929, "lon": -73.98889690000001, "name": "Bikram Yoga South Slope", "address": "555 5th Ave, Brooklyn, NY 11215"}, {"lat": 40.7728753, "lon": -73.9812519, "name": "YogaWorks Westside", "address": "37 W 65th St, New York, NY 10023"}, {"lat": 40.7192176, "lon": -73.9861798, "name": "New York Capoeira Center", "address": "107 Suffolk St, Manhattan, NY 10002"}, {"lat": 40.7288039, "lon": -73.999946, "name": "Unnata? Aerial Yoga", "address": "163 Bleecker St, New York, NY 10012"}, {"lat": 40.712373, "lon": -73.95636499999999, "name": "Sapientia Oscen Doula NYC", "address": "336 Grand St, Brooklyn, NY 11211"}, {"lat": 40.76052500000001, "lon": -73.827349, "name": "BODY & BRAIN Yoga - Flushing", "address": "136-79 Roosevelt Ave, Flushing, NY 11354"}, {"lat": 40.6195415, "lon": -74.02997599999999, "name": "Yoga In Bay Ridge", "address": "9016 4th Ave, Brooklyn, NY 11209"}, {"lat": 40.778433, "lon": -73.980471, "name": "Zenyasa Yoga & Wellness Studio", "address": "155 W 72nd St, New York, NY 10023"}, {"lat": 40.81773570000001, "lon": -73.9448297, "name": "Urban Yoga Foundation", "address": "259 W 137th St, New York, NY 10030"}, {"lat": 40.7237695, "lon": -73.997891, "name": "Living Room SoHo", "address": "552-556 Broadway, Manhattan, NY 10012"}, {"lat": 40.7354481, "lon": -73.98588389999999, "name": "Sal Anthony?s Movement Salon", "address": "190 3rd Ave, New York, NY 10003"}, {"lat": 40.7487992, "lon": -73.9816324, "name": "Tournesol Wellness", "address": "26 E 36th St, New York, NY 10016"}, {"lat": 40.6036896, "lon": -73.9963282, "name": "The Exercise Studio", "address": "2073 86th St, Brooklyn, NY 11214"}, {"lat": 40.7434614, "lon": -73.9891107, "name": "Nicola Yvette", "address": "1123 Broadway, New York, NY 10011"}, {"lat": 40.7245767, "lon": -73.9971502, "name": "Twisted Trunk Yoga", "address": "580 Broadway, New York, NY 10012"}, {"lat": 40.7199046, "lon": -73.8644862, "name": "HotYoga4You Rego Park", "address": "65-07 Woodhaven Blvd, Rego Park, NY 11374"}, {"lat": 40.69199589999999, "lon": -73.9904481, "name": "YogaWorks Brooklyn Heights", "address": "210 Joralemon St, Brooklyn, NY 11201"}, {"lat": 40.7257229, "lon": -73.9805137, "name": "Ashtanga Yoga Shala", "address": "295 E 8th St, New York, NY 10009"}, {"lat": 40.7307918, "lon": -73.9903808, "name": "The Three Jewels", "address": "61 4th Ave, New York, NY 10003"}, {"lat": 40.76137, "lon": -73.987139, "name": "Bikram Yoga NYC", "address": "797 8th Ave, New York, NY 10019"}, {"lat": 40.7299999, "lon": -73.99, "name": "Radish Yoga", "address": "New York, NY 10211"}, {"lat": 40.579316, "lon": -73.837293, "name": "Hot Yoga Rockaway Beach", "address": "181 Beach 116th St, Rockaway Park, NY 11694"}, {"lat": 40.719576, "lon": -73.84207599999999, "name": "Spencer Pilates Arts", "address": "108-12 72nd Ave, Forest Hills, NY 11375"}, {"lat": 40.6380353, "lon": -74.0738662, "name": "Shakti Yoga Center", "address": "3 Victory Blvd, Staten Island, NY 10301"}, {"lat": 40.719625, "lon": -73.842044, "name": "Body & Brain Forest-Hills", "address": "108-14 72nd Ave, Forest Hills, NY 11375"}, {"lat": 40.7337844, "lon": -74.0022238, "name": "Studio Spine For Iyengar Yoga", "address": "55 Christopher St, Manhattan, NY 10014"}, {"lat": 40.783467, "lon": -73.846125, "name": "TOPshape Health & Fitness", "address": "15 - 26 College Point Blvd, College Point, NY 11356"}, {"lat": 40.721566, "lon": -73.9987348, "name": "Ashtanga Yoga New York", "address": "430 Broome St, New York, NY 10013"}, {"lat": 40.75419, "lon": -73.9917475, "name": "AntiGravity Aerial LAB", "address": "265 W 37th St, New York, NY 10018"}, {"lat": 40.71591, "lon": -73.940539, "name": "Connie Viglietti Yoga", "address": "65 Maspeth Ave, New York, NY 11211"}, {"lat": 40.73992550000001, "lon": -73.9850622, "name": "Kinespirit", "address": "125 E 23rd St, New York, NY 10010"},{"lat": 40.6244865, "lon": -74.11758929999999, "name": "Relax On Cloud Nine", "address": "694 Clove Rd, Staten Island, NY 10310"}, {"lat": 40.810272, "lon": -73.9448652, "name": "Harlem Holistic Center", "address": "115 W 128th St, Manhattan, NY 10027"}, {"lat": 40.7788423, "lon": -73.9564625, "name": "New York Yoga Wellness Center", "address": "132 E 85th St, New York, NY 10028"}, {"lat": 40.7605599, "lon": -73.99905249999999, "name": "Type A Training", "address": "620 W 42nd St, New York, NY 10036"}, {"lat": 40.7201767, "lon": -73.8074355, "name": "Pilates Bodies, NY", "address": "159-16 Union Tpke, Queens, NY 11366"}, {"lat": 40.660001, "lon": -73.983908, "name": "Hands On Health", "address": "1663 8th Ave, Brooklyn, NY 11215"}, {"lat": 40.7493076, "lon": -73.7549267, "name": "Flex Hot Yoga", "address": "221-50 Horace Harding Expy, Bayside, NY 11364"}, {"lat": 40.7656852, "lon": -73.9762334, "name": "Hiking Yoga", "address": "Central Park S &amp; Center Dr, New York, NY 10019"}, {"lat": 40.7155622, "lon": -73.990292, "name": "Select Yoga", "address": "46 Hester St, New York, NY 10002"}, {"lat": 40.762906, "lon": -73.7703502, "name": "Vitality Yoga & Tai Chi", "address": "4125 Bell Blvd, Queens, NY 11361"}, {"lat": 40.6660828, "lon": -73.98992989999999, "name": "Harbor Fitness", "address": "191 15th St, Brooklyn, NY 11215"}, {"lat": 40.737919, "lon": -73.982539, "name": "Corey DiStasio", "address": "217 E 22 St, Manhattan, NY 10010"}, {"lat": 40.6761734, "lon": -73.9803074, "name": "Body Reserve", "address": "207 5th Ave, Brooklyn, NY 11215"}, {"lat": 40.6846785, "lon": -74.0034648, "name": "Elite Fitness Studio", "address": "111 Union St, Brooklyn, NY 11231"}, {"lat": 40.7127837, "lon": -74.0059413, "name": "BuddhaX", "address": "New York, NY"}, {"lat": 40.720034, "lon": -73.843057, "name": "Santhigram Ayurveda Forest Hills", "address": "107-14 71st Rd, Forest Hills, NY 11375"}, {"lat": 40.7286678, "lon": -74.01215669999999, "name": "Kerry Ruggi Yoga", "address": "Hudson River Pier 45, Manhattan, NY 10014"}, {"lat": 40.6630432, "lon": -73.9800881, "name": "Kundalini Yoga in Park Slope", "address": "473 13th St, Brooklyn, NY 11215"}, {"lat": 40.7619045, "lon": -73.83114479999999, "name": "Gold VS Hot Yoga", "address": "36-57 Main St, Flushing, NY 11354"}, {"lat": 40.7463827, "lon": -73.9776553, "name": "Earth Yoga", "address": "E 63rd Str. betwn 2nd and 3rd Ave, Manhattan, NY"}, {"lat": 40.7680317, "lon": -73.9537656, "name": "East Side Yoga", "address": "431 E 73rd Street, New York, NY 10021"}, {"lat": 40.6257937, "lon": -73.9758519, "name": "Body & Soul Central", "address": "1123 McDonald Ave, Brooklyn, NY 11230"}, {"lat": 40.6891139, "lon": -73.9313197, "name": "The Weaver-Yoga & Holistic Healing", "address": "720A Quincy St, Brooklyn, NY 11221"}, {"lat": 40.6094492, "lon": -73.96192920000001, "name": "Yoga Spot", "address": "1957 Coney Island Ave, Brooklyn, NY 11223"}, {"lat": 40.72088400000001, "lon": -74.04524500000001, "name": "Jivamukti Yoga Center - Jersey City", "address": "171 Newark Ave, Jersey City, NJ 07302"}, {"lat": 40.776018, "lon": -73.95201, "name": "Sanctuary Pilates", "address": "316 E 84th St, New York, NY 10028"}, {"lat": 40.75395049999999, "lon": -73.9864762, "name": "Yogalaff", "address": "1430 Broadway, New York, NY 10018"}, {"lat": 40.8232919, "lon": -73.944857, "name": "Beloved Yogi Harlem", "address": "678 St Nicholas Ave, New York, NY 10030"}, {"lat": 40.7130687, "lon": -73.872472, "name": "Vigorous Fitness Clubs", "address": "79-32 Metropolitan Ave, New York, NY 11379"}, {"lat": 40.72075299999999, "lon": -73.99884899999999, "name": "The Monster Cycle + Studio", "address": "182 Lafayette St, New York, NY 10013"}, {"lat": 40.8685201, "lon": -73.9180095, "name": "Bread and Yoga", "address": "5000 Broadway, New York, NY 10034"}, {"lat": 40.6262697, "lon": -74.0301945, "name": "BODY & BRAIN Yoga Tai Chi", "address": "8206 3rd Ave, Brooklyn, NY 11209"}, {"lat": 40.851777, "lon": -73.93757099999999, "name": "Studio In The Heights", "address": "500 Fort Washington Ave, New York, NY 10033"}, {"lat": 40.7391317, "lon": -73.98134019999999, "name": "Reflections Yoga", "address": "227 E 24th St, New York, NY 10010"}, {"lat": 40.7474851, "lon": -73.9913955, "name": "The Yoga Collective", "address": "135 W 29th St, Manhattan, NY 10001"}, {"lat": 40.697299, "lon": -73.9309601, "name": "Otion Front Studio", "address": "1196 Myrtle Ave, Brooklyn, NY 11221"}, {"lat": 40.746511, "lon": -73.989142, "name": "Buddha Body Yoga", "address": "39 W 29th St, New York, NY 10001"}, {"lat": 40.77664120000001, "lon": -73.9521468, "name": "Pop Up Yoga NYC", "address": "New York, NY 10028"}, {"lat": 40.7605744, "lon": -73.9738917, "name": "Dahn Yoga", "address": "532 Madison Ave, Manhattan, NY 10022"}, {"lat": 40.7659685, "lon": -73.96378980000001, "name": "Body & Brain Park East", "address": "168 E 66th St, New York, NY 10065"}, {"lat": 40.8097951, "lon": -73.9457359, "name": "Harlem Wellness Center", "address": "127 W 127th St, New York, NY 10027"}, {"lat": 40.76306150000001, "lon": -73.9813814, "name": "Mix Yoga", "address": "825 7th Ave, New York, NY 10019"}, {"lat": 40.7372439, "lon": -73.989987, "name": "Prana Power Yoga", "address": "862 Broadway, New York, NY 10003"}, {"lat": 40.6948496, "lon": -73.9953056, "name": "Bikram Yoga Brooklyn Heights", "address": "106 Montague St, Brooklyn, NY 11201"}, {"lat": 40.656469, "lon": -74.0084111, "name": "YMX by Yellowman", "address": "220 36th St, Brooklyn, NY 11232"}, {"lat": 40.723589, "lon": -73.9533568, "name": "Williamsburg Mixed Martial Arts", "address": "42A Dobbin St, Brooklyn, NY 11222"}, {"lat": 40.784281, "lon": -73.956017, "name": "Philomathist Center", "address": "1285 Madison Ave, Manhattan, NY 10128"}, {"lat": 40.7678227, "lon": -73.9554976, "name": "Vital Signs Fitness Coaching Yoga NYC", "address": "399 E 72 St, Manhattan, NY 10021"}, {"lat": 40.8032701, "lon": -73.9677214, "name": "Pilates Shop Yoga Garage", "address": "2805 Broadway, New York, NY 10025"}, {"lat": 40.6735818, "lon": -73.97771, "name": "Jennifer Brilliant Yoga & Personal Training", "address": "732A Carroll St, Brooklyn, NY 11215"}, {"lat": 40.7409865, "lon": -73.9917679, "name": "Exhale Flatiron", "address": "19 W 21 St, New York, NY 10010"}, {"lat": 35.20731, "lon": -113.772629, "name": "Holistic Meditation", "address": "328 East 61 St, 3rd Fl, Manhattan, NY 10065"}, {"lat": 40.7474851, "lon": -73.9913955, "name": "Three Sisters Yoga", "address": "135 W 29th St, New York, NY 10001"}, {"lat": 40.7462064, "lon": -73.9864908, "name": "Art of Living Foundation", "address": "286 5th Ave, New York, NY 10001"}, {"lat": 40.7176296, "lon": -74.00993040000002, "name": "Alycea Ungaro?s Real Pilates", "address": "177 Duane St, New York, NY 10013"}, {"lat": 40.617626, "lon": -74.029943, "name": "Harbor Fitness", "address": "9215 4th Ave, Brooklyn, NY 11209"}, {"lat": 40.71591, "lon": -73.940539, "name": "Sarah Seely", "address": "65 Maspeth Ave, Ste 2B, Brooklyn, NY 11211"}, {"lat": 40.7366138, "lon": -74.0094471, "name": "Exhale Meatpacking", "address": "New York, NY 10014"}, {"lat": 40.7187046, "lon": -73.9611783, "name": "Adriane Yoga", "address": "169 Wythe Ave, Brooklyn, NY 11211"}, {"lat": 40.7102011, "lon": -73.850686, "name": "Genesis Tree of Life Yoga & Wellness Center", "address": "102-02/06 Metropolitan Ave, Forest Hills, NY 11375"}, {"lat": 40.7223949, "lon": -73.9975905, "name": "Exhale Soho", "address": "68-70 Spring St, New York, NY 10012"}, {"lat": 40.774797, "lon": -73.911866, "name": "Creative Vibrations Yoga Studio & Ayurvedic Spa", "address": "22-55 31st St, Astoria, NY 11105"}, {"lat": 40.6214841, "lon": -74.0059368, "name": "Yoga Nidra Studio", "address": "7217 13th Ave, Brooklyn, NY 11228"},{"lat": 40.7257229, "lon": -73.9805137, "name": "Heartbeat Yoga", "address": "295 E 8th St, New York, NY 10009"}, {"lat": 40.5877081, "lon": -73.9549202, "name": "Yoga Studio", "address": "1401 Sheepshead Bay Rd, Brooklyn, NY 11235"}, {"lat": 40.7177525, "lon": -74.04422679999999, "name": "Yoga Shunya", "address": "275 Grove St, Jersey City, NJ 07302"}, {"lat": 40.7375282, "lon": -74.0300462, "name": "Powerflow Yoga Hoboken", "address": "104 Hudson St, Hoboken, NJ 07030"}, {"lat": 40.7608973, "lon": -73.80174439999999, "name": "Prana Hot Yoga", "address": "164-03 Northern Blvd, Flushing, NY 11358"}, {"lat": 40.7597801, "lon": -73.7318098, "name": "Ananda Yoga Sangam", "address": "56-10 Marathon Pkwy, Douglaston, NY 11362"}, {"lat": 40.7913637, "lon": -74.0005937, "name": "Aum Body & Soul Spa", "address": "7000 Kennedy Blvd E, Guttenberg, NJ 07093"}, {"lat": 40.7724933, "lon": -73.9571368, "name": "YogawithSuzi", "address": "E 77th St, Manhattan, NY 10075"}, {"lat": 40.745951, "lon": -74.049697, "name": "Yoga in the Heights", "address": "317 Central Ave, Jersey City, NJ 07307"}, {"lat": 40.7552511, "lon": -73.97393140000001, "name": "Yoga Fit For Life", "address": "275 Park Ave, Manhattan, NY 10016"}, {"lat": 40.5713579, "lon": -74.111947, "name": "Limitless Fitness Studios", "address": "322 New Dorp Ln, Staten Island, NY 10306"}, {"lat": 40.8560569, "lon": -73.85591099999999, "name": "B-Well Studio", "address": "2125 Williamsbridge Rd, Bronx, NY 10461"}, {"lat": 40.7469126, "lon": -73.9861674, "name": "The Meditation Center and Gallery", "address": "306 5th Ave, New York, NY 10001"}, {"lat": 40.8293191, "lon": -73.94899749999999, "name": "Asali Yoga", "address": "601 W 149th St, New York, NY 10031"}, {"lat": 40.688804, "lon": -73.9851432, "name": "Tangerine Hot Power Yoga", "address": "225 Schermerhorn St, Brooklyn, NY 11201"}, {"lat": 40.7135122, "lon": -73.9595179, "name": "Spring Into Yoga", "address": "230 Grand St, Brooklyn, NY 11211"}, {"lat": 40.724891, "lon": -74.003205, "name": "The Yoga Adventure", "address": "192 Spring St, New York, NY 10012"}, {"lat": 40.8766133, "lon": -73.905687, "name": "Bikram Yoga Bronx", "address": "5500 Broadway, Bronx, NY 10463"}, {"lat": 40.66323999999999, "lon": -73.93297, "name": "Crunch", "address": "842 Lefferts Blvd, Brooklyn, NY 11203"}, {"lat": 40.791127, "lon": -73.9668389, "name": "Run Like A Yogi", "address": "43 W 94th St, Manhattan, NY 10025"}, {"lat": 40.7093358, "lon": -73.9565551, "name": "New York New You Fitness", "address": "Brooklyn, NY 11211"}, {"lat": 40.6681669, "lon": -73.9800645, "name": "Relax Already Yoga", "address": "Brooklyn, NY 11215"}, {"lat": 40.8478199, "lon": -73.8309866, "name": "Excel Yoga, Dance & Fitness", "address": "3045 Buhre Ave, Bronx, NY 10461"}, {"lat": 40.6677696, "lon": -73.958871, "name": "MOUNTAIN", "address": "903 Franklin Ave, Brooklyn, NY 11225"}, {"lat": 40.7245767, "lon": -73.9971502, "name": "David H Wagner", "address": "580 Broadway, New York, NY 10012"}, {"lat": 40.7441777, "lon": -74.0291864, "name": "Surya Yoga Academy", "address": "618 Washington St, Hoboken, NJ 07030"}, {"lat": 40.5729554, "lon": -74.1174431, "name": "5 Boro Power Yoga", "address": "82 New Dorp Plz, New Dorp, NY 10306"}, {"lat": 40.7150751, "lon": -74.0072003, "name": "Jill Everett Personal Training", "address": "77 Reade St, New York, NY 10007"}, {"lat": 40.715499, "lon": -74.04660369999999, "name": "Michelle Timek Yoga", "address": "10 Regent St, Jersey City, NJ 07302"}, {"lat": 40.5866981, "lon": -74.16318609999999, "name": "Transformation Fitness Studio Inc", "address": "151 Richmond Hill Rd, Staten Island, NY 10314"}, {"lat": 40.7748162, "lon": -73.9635709, "name": "Exhale Upper East Side", "address": "980 Madison Ave, New York, NY 10075"}, {"lat": 40.734399, "lon": -73.957549, "name": "Catcow Yoga & Healing", "address": "105 Freeman Street, Brooklyn, NY 11222"}, {"lat": 40.71702399999999, "lon": -73.99600199999999, "name": "Maggie Studio, Inc", "address": "80 Bowery, New York, NY 10013"}, {"lat": 40.7380332, "lon": -73.9902951, "name": "Kundalini Yoga East Inc", "address": "873 Broadway Ste 614, New York, NY 10003"}, {"lat": 40.8639624, "lon": -73.93304289999999, "name": "Explore Yoga", "address": "4450 Broadway, 2nd Fl, New York, NY 10040"}, {"lat": 40.6262069, "lon": -73.97597549999999, "name": "Pakua McDonald", "address": "1115 McDonald Ave, Brooklyn, NY 11230"}, {"lat": 40.71591, "lon": -73.940539, "name": "Fit+Flow Yoga & Wellness", "address": "65 Maspeth Ave, East Williamsburg, NY 11211"}, {"lat": 40.7079921, "lon": -74.0065857, "name": "Crunch", "address": "90 John Street, New York, NY 10038"}, {"lat": 40.7853179, "lon": -73.9758639, "name": "Crunch", "address": "162 W 83rd St, New York, NY 10024"}, {"lat": 40.7009835, "lon": -73.9414388, "name": "Crunch", "address": "785 Flushing Ave, Brooklyn, NY 11206"}, {"lat": 40.7514214, "lon": -73.9805145, "name": "Madison Avenue Thai Massage", "address": "280 Madison Ave, New York, NY 10016"}, {"lat": 40.64845649999999, "lon": -73.9585318, "name": "Ashay Yoga", "address": "944 Flatbush Ave, Brooklyn, NY 11226"}, {"lat": 40.6295746, "lon": -73.9639284, "name": "Midwood Martial Arts & Family Fitness Center", "address": "1302 Ave H, Brooklyn, NY 11230"}, {"lat": 40.768668, "lon": -74.026765, "name": "The Soul Garage - Vinyasa Yoga & Movement Space", "address": "561 Hudson Ave, Weehawken, NJ 07086"},{"lat": 40.7202036, "lon": -73.96049409999999, "name": "Torque Cycle + Strength", "address": "74 N 8th St, Brooklyn, NY 11249"}, {"lat": 40.694622, "lon": -73.94466299999999, "name": "The Healing Routes", "address": "619 Willoughby Ave, Brooklyn, NY 11206"}, {"lat": 40.7180621, "lon": -73.8131725, "name": "Body & Brain Yoga", "address": "147-37 Charter Rd., Kew Gardens Hills, NY 11435"}, {"lat": 40.72075299999999, "lon": -73.99884899999999, "name": "Y7 Studio", "address": "182 Lafayette St, New York, NY 10013"}, {"lat": 40.575429, "lon": -74.008634, "name": "Leaves Of Nature Yoga Studio", "address": "4216 Surf Ave, Brooklyn, NY 11224"}, {"lat": 40.6998433, "lon": -74.0072436, "name": "YogaRoni", "address": "New York, NY 10005"}, {"lat": 40.6749733, "lon": -73.9979247, "name": "Yoga Center of Brooklyn", "address": "474 Smith St, Brooklyn, NY 11231"}, {"lat": 40.7999209, "lon": -73.96831019999999, "name": "The Lab New York", "address": "Manhattan, NY 10025"}, {"lat": 40.687372, "lon": -73.9750001, "name": "Shala Yoga", "address": "83 Lafayette Ave, New York, NY 11217"}, {"lat": 40.7171762, "lon": -74.0051431, "name": "Crunch", "address": "80 Leonard St, New York, NY 10013"}, {"lat": 40.6466493, "lon": -74.00228969999999, "name": "Yoga at Sunset Park Rec Center", "address": "Sunset Park Rec Center, Brooklyn, NY 11232"}, {"lat": 40.722493, "lon": -74.008985, "name": "Tribeca Yoga", "address": "37 Vestry, Manhattan, NY 10013"}, {"lat": 40.667229, "lon": -73.94060999999999, "name": "Crown Heights Fitness", "address": "1458 President St, New York, NY 11213"}, {"lat": 40.74947600000001, "lon": -73.88950849999999, "name": "Yoga With Sandhya Kaurwar", "address": "76-11 37th Ave, Jackson Heights, NY 11372"}, {"lat": 40.7269561, "lon": -73.9952466, "name": "Tara B Yoga", "address": "666 Broadway, Manhattan, NY 10012"}, {"lat": 40.7042662, "lon": -73.9431331, "name": "Yoga Mela Studio", "address": "88 Seigel St, Brooklyn, NY 11206"}, {"lat": 40.7748162, "lon": -73.9635709, "name": "Exhale Enterprises", "address": "980 Madison Ave, New York, NY 10075"}, {"lat": 40.7127837, "lon": -74.0059413, "name": "Yoga Now NYC", "address": "New York, NY"}, {"lat": 40.6386091, "lon": -73.9702606, "name": "Morgan E. Perlis, Transform Structural Integration", "address": "800 Cortelyou Rd, Brooklyn, NY 11218"}, {"lat": 40.890356, "lon": -73.905094, "name": "Yoga For Bliss", "address": "4450 Fieldston Rd, Bronx, NY 10471"}, {"lat": 40.73604, "lon": -74.0284999, "name": "Devotion Yoga", "address": "12 Hudson Pl, Hoboken, NJ 07030"}, {"lat": 40.7205169, "lon": -74.04313259999999, "name": "Surya Yoga Academy", "address": "341 Grove St, Jersey City, NJ 07302"}, {"lat": 40.674097, "lon": -73.962763, "name": "MAUSA Health & Fitness Center", "address": "759 Washington Ave, Brooklyn, NY 11238"}, {"lat": 40.716978, "lon": -73.9656589, "name": "Y7 Studio", "address": "240 Kent Ave, Williamsburg, NY 11249"}, {"lat": 40.7231279, "lon": -73.9533179, "name": "Yoga Hyde", "address": "26 Dobbins St, Brooklyn, NY 11222"}, {"lat": 40.6625026, "lon": -73.9766635, "name": "Wanderlust 108", "address": "70 West Dr, Brooklyn, NY 11215"}, {"lat": 40.7127837, "lon": -74.0059413, "name": "Elahi Yoga", "address": "New York, NY"}, {"lat": 40.8550085, "lon": -73.9386782, "name": "JourneySpace", "address": "220 Cabrini Blvd, New York, NY 10033"}, {"lat": 40.579316, "lon": -73.837293, "name": "All Seasons Retreat and Spa", "address": "181 B116th St, Rockaway Park, NY 11694"}, {"lat": 40.6221644, "lon": -74.031311, "name": "Shanti Baby Yoga", "address": "8717 3rd Ave, Brooklyn, NY 11209"}, {"lat": 40.756844, "lon": -73.96795300000001, "name": "Cherry Blossom Yoga Center", "address": "242 E 53rd St, Manhattan, NY 10022"}, {"lat": 40.6619202, "lon": -73.9455541, "name": "Yoga Center of Brooklyn", "address": "519 Brooklyn Ave, Brooklyn, NY 11225"}, {"lat": 40.7413271, "lon": -73.9907092, "name": "Dailey Reflexology and Yoga", "address": "7 W 22nd St, New York, NY 10011"}, {"lat": 40.771032, "lon": -73.962076, "name": "Yogi Beans", "address": "1018 Lexington Ave, New York, NY 10021"}, {"lat": 40.71591, "lon": -73.940539, "name": "Alchemy Holistics", "address": "65 Maspeth Ave, Ste 2B, Brooklyn, NY 11211"}, {"lat": 40.794553, "lon": -73.9760288, "name": "Soule Yoga", "address": "214 Riverside Dr, New York, NY 10025"}, {"lat": 40.6681669, "lon": -73.9800645, "name": "Julie Dohrman", "address": "Brooklyn, NY 11215"}, {"lat": 40.6893001, "lon": -73.9117428, "name": "Yoga Foundation", "address": "Halsey St, Brooklyn, NY 11207"}, {"lat": 40.7999209, "lon": -73.96831019999999, "name": "Amalia May", "address": "Manhattan, NY 10025"}, {"lat": 40.652173, "lon": -73.92586899999999, "name": "Brooklyn Yoga and Pilates", "address": "5414 Church Ave, Brooklyn, NY 11203"}, {"lat": 40.7234162, "lon": -73.94590869999999, "name": "Golden Light Yoga", "address": "19 Diamond St, Brooklyn, NY 11222"}, {"lat": 40.7449871, "lon": -73.9772984, "name": "Crunch", "address": "222 E 34th St, New York, NY 10016"}, {"lat": 40.7392167, "lon": -74.0326317, "name": "Hoboken Women?s Wellness", "address": "204 2nd St, Hoboken, NJ 07030"}, {"lat": 40.6692792, "lon": -73.9938463, "name": "Sattva", "address": "126 13th St, Brooklyn, NY 11215"}, {"lat": 40.7294827, "lon": -74.0040147, "name": "Gore?s Core Fitness", "address": "35 Bedford St, New York, NY 10014"}, {"lat": 40.7461573, "lon": -74.0356228, "name": "ZenSpace", "address": "450 7th St, Hoboken, NJ 07030"}, {"lat": 40.8151587, "lon": -73.9161086, "name": "Crunch", "address": "436 E 149th Street, Bronx, NY 10455"}, {"lat": 40.76119, "lon": -73.9837835, "name": "Better Health Chiropractic", "address": "825 7th Ave, New York, NY 10019"}, {"lat": 40.7358633, "lon": -73.9910835, "name": "Reiki Adya", "address": "Union Square, Manhattan, NY"}, {"lat": 40.7408147, "lon": -73.9931466, "name": "Erin Oglesby CranioSacral Therapy and Yoga", "address": "37 W 20th St, New York, NY 10011"}, {"lat": 40.733497, "lon": -73.99996039999999, "name": "Bikram Yoga Manhattan", "address": "401 6th Ave, New York, NY 10014"}, {"lat": 40.6815619, "lon": -73.9785952, "name": "Brooklyn Cleanse", "address": "Brooklyn, NY 11217"}, {"lat": 40.7420276, "lon": -73.981586, "name": "Hohmyoga", "address": "152 E 28th St, Manhattan, NY 10016"}, {"lat": 40.8277782, "lon": -73.9245443, "name": "Sweet Water Dance & Yoga", "address": "876 Gerard Ave, Bronx, NY 10452"}, {"lat": 40.7762605, "lon": -73.9032227, "name": "Bhaktivedanta Mission", "address": "20-29 38th St, Astoria, NY 11105"}, {"lat": 40.8009856, "lon": -73.9393087, "name": "Open Mind Yoga", "address": "180 East 120th St, Manhattan, NY 10035"}, {"lat": 40.7336373, "lon": -74.0036221, "name": "Village Yoga with Hari Kaur Khalsa", "address": "81 Christopher St., Manhattan, NY 10014"}, {"lat": 40.7234113, "lon": -73.9523543, "name": "Cross Ballroom &Yoga", "address": "55 Nassau Ave, Brooklyn, NY 11222"}, {"lat": 40.6939132, "lon": -73.9063658, "name": "YOGA @ r&dstudios", "address": "345 Eldert St, Brooklyn, NY 11237"}, {"lat": 40.7783019, "lon": -73.98016299999999, "name": "Bikram Yoga NYC", "address": "143 W 72nd St, New York, NY 10023"}, {"lat": 40.7029384, "lon": -74.0126855, "name": "New York Health and Racquet Club", "address": "39 Whitehall St, New York, NY 10004"}, {"lat": 40.7642452, "lon": -73.983522, "name": "Crunch", "address": "250 W 54th St, New York, NY 10019"}, {"lat": 40.7639017, "lon": -73.82643170000001, "name": "The Flushing YMCA", "address": "138-46 Northern Blvd., New York, NY 11354"}, {"lat": 40.77834989999999, "lon": -73.9534644, "name": "Yorkville Physical Therapy & Sports Rehab.", "address": "210 E 86th St, New York, NY 10028"}, {"lat": 40.706685, "lon": -73.92349399999999, "name": "The Cobra Club", "address": "6 Wyckoff Ave, Bushwick, NY 11237"}, {"lat": 40.7643204, "lon": -73.9717272, "name": "Erika Bloom Pilates Plus", "address": "14 E 60th St, New York, NY 10022"}, {"lat": 40.764824, "lon": -73.814351, "name": "Korea Village Fitness", "address": "150-24 Northern Blvd, Flushing, NY 11354"}, {"lat": 40.7545309, "lon": -73.981138, "name": "JSC Fitness", "address": "New York, NY 10129"}, {"lat": 40.7813392, "lon": -73.9816152, "name": "Lululemon Athletica", "address": "2139 W Broadway, New York, NY 10023"}, {"lat": 40.7273576, "lon": -73.9844794, "name": "Ashtanga Yoga Sadhana", "address": "12 Saint Marks Pl, New York, NY 10009"}, {"lat": 40.7380866, "lon": -73.997902, "name": "McBurney YMCA", "address": "125 W 14th St, New York, NY 10011"}, {"lat": 40.8030358, "lon": -73.9683259, "name": "Storm Yoga", "address": "318 W 108th st, Manhattan, NY 10025"}, {"lat": 40.7388319, "lon": -73.98153370000001, "name": "Mind Body Fitness NYC", "address": "Manhattan, NY 10010"}, {"lat": 40.7394508, "lon": -73.8733512, "name": "Yogi Gupta Ashram", "address": "9016 51St Ave, Elmhurst, NY 11373"}, {"lat": 40.7245767, "lon": -73.9971502, "name": "Movement & Beyond", "address": "580 Broadway, New York, NY 10012"}, {"lat": 40.7481213, "lon": -73.993884, "name": "Tapactive", "address": "214 W 29th St, New York, NY 10001"}, {"lat": 40.8236912, "lon": -73.9514781, "name": "Temple M", "address": "555 West 141st St, New York, NY 10031"}, {"lat": 40.713344, "lon": -73.95904399999999, "name": "Devi Yoga Studio", "address": "246 Grand St, Brooklyn, NY 11211"}, {"lat": 40.7307918, "lon": -73.9903808, "name": "Jai Warrior Yoga", "address": "61 4th Ave, New York, NY 10003"}, {"lat": 40.7570426, "lon": -73.8706718, "name": "Sweat Fitness NYC", "address": "97-16 Northern Blvd, Corona, NY 11368"}, {"lat": 40.7187002, "lon": -74.0396579, "name": "Base", "address": "60 Christopher Columbus Dr, Jersey City, NJ 07302"}, {"lat": 40.7325089, "lon": -73.99172209999999, "name": "Thrive Body-Mind", "address": "80 E 11th St, New York, NY 10003"}, {"lat": 40.74833599999999, "lon": -73.97899799999999, "name": "Inhale Exhale", "address": "118 E 37th St, New York, NY 10016"}, {"lat": 40.7250632, "lon": -73.9976946, "name": "Love + Kale", "address": "New York, NY 10012"}, {"lat": 40.7239834, "lon": -74.0493213, "name": "SunMoon Yoga", "address": "413 Monmouth St, Jersey City, NJ 07302"}, {"lat": 40.851777, "lon": -73.93757099999999, "name": "WholeLife Styles", "address": "500 Ft. Washington Ave, New York, NY 10033"}, {"lat": 40.674903, "lon": -73.96713299999999, "name": "Ruthie Fraser", "address": "190 Underhill Ave, Brooklyn, NY 11238"}, {"lat": 40.771459, "lon": -74.022708, "name": "Clarity Fitness", "address": "3515 Park Ave, Union City, NJ 07087"}, {"lat": 40.7999509, "lon": -73.94565089999999, "name": "Yoga Bliss", "address": "18 E 116 St, Manhattan, NY 10029"}, {"lat": 40.7819209, "lon": -74.13800499999999, "name": "Jinga Yoga", "address": "8 Ridge Rd, North Arlington, NJ 07031"}, {"lat": 40.77731310000001, "lon": -73.9826028, "name": "Jessica Lynne Yoga", "address": "70th and Amsterdam, Manhattan, NY 10023"}, {"lat": 40.7681121, "lon": -73.96011200000001, "name": "Yoga With Jen Elena", "address": "217 E 70th St, Manhattan, NY 10021"}, {"lat": 40.8187386, "lon": -73.9271644, "name": "South Bronx Yoga", "address": "Bronx, NY 10451"}, {"lat": 40.8252945, "lon": -74.10947759999999, "name": "Shiva Shanti Yoga School", "address": "165 Park Avenue, Rutherford, NJ 07070"}, {"lat": 40.7275043, "lon": -73.9800645, "name": "Wellness Rains", "address": "New York, NY 10009"}, {"lat": 40.7526707, "lon": -73.98517, "name": "The Prana Studio", "address": "66 W 39th St, New York, NY 10018"}, {"lat": 40.7604651, "lon": -73.8292359, "name": "Muse4Yoga NY", "address": "136-36 39 Ave, Queens, NY 11354"}, {"lat": 40.72370009999999, "lon": -73.9991957, "name": "Lol?", "address": "112 Mercer St, New York, NY 10012"}, {"lat": 40.5954525, "lon": -74.08647069999999, "name": "BodyLIne Pilates, Inc", "address": "1361 Hylan Blvd, Staten Island, NY 10305"}, {"lat": 40.7218318, "lon": -74.0447003, "name": "Jersey City Real Yoga", "address": "Jersey City, NJ 07302"}, {"lat": 40.7660317, "lon": -73.9858522, "name": "Provita", "address": "350 W 55th St, New York, NY 10012"}, {"lat": 40.7404041, "lon": -73.99398099999999, "name": "Moonheart Healing Arts Center", "address": "59 W 19th St, New York, NY 10011"}, {"lat": 40.8454065, "lon": -73.94205769999999, "name": "Quantum Elite Training", "address": "735 W 172 St Bsmt, Manhattan, NY 10032"}, {"lat": 40.7366138, "lon": -74.0094471, "name": "Busy Monkey Yoga", "address": "New York, NY 10014"}, {"lat": 40.7250632, "lon": -73.9976946, "name": "Lara Benusis Yoga Sessions", "address": "New York, NY 10012"}, {"lat": 40.7160913, "lon": -74.07407289999999, "name": "FlorYoga", "address": "Jersey City, NJ 07304"}, {"lat": 40.6729211, "lon": -73.9908994, "name": "Trestle Gallery", "address": "168 7th St, Brooklyn, NY 11215"}, {"lat": 40.7694389, "lon": -73.9500145, "name": "Fitnotic", "address": "New York, NY 10162"}, {"lat": 40.743786, "lon": -73.9893613, "name": "Power Yoga Shala", "address": "1133 Broadway, Manhattan, NY 10010"}, {"lat": 40.7723028, "lon": -73.9653167, "name": "Exhale Mindbody Spa", "address": "900 Madison Ave, New York, NY 10075"}, {"lat": 40.7577535, "lon": -73.8643871, "name": "Invest In Your Body", "address": "104-05 Northern Blvd, Queens, NY 11368"}, {"lat": 40.7692018, "lon": -73.98480119999999, "name": "Yoga Journal Conference Nyc", "address": "1335 Ave, New York, NY 10019"}, {"lat": 40.7612957, "lon": -73.7330753, "name": "Daniela?s Hot Yoga", "address": "44-33 Douglaston Pkwy, 2nd Fl, Douglaston, NY 11362"}, {"lat": 40.8187548, "lon": -74.2111224, "name": "Yoga ?Montclair", "address": "107 Forest Ave, Montclair, NJ 07042"}, {"lat": 40.7292352, "lon": -73.9911716, "name": "New York Health & Racquet Club", "address": "62 Cooper Sq, New York, NY 10003"}, {"lat": 40.7660317, "lon": -73.9858522, "name": "Abigail DeVine Sound Healing", "address": "350 W 55th St, New York, NY 10019"}, {"lat": 40.782092, "lon": -73.94736999999999, "name": "Col Flower Yoga", "address": "317 E 93rd St, Manhattan, NY 10128"}, {"lat": 40.7530067, "lon": -73.98801069999999, "name": "Crunch", "address": "144 W 38th St, New York, NY 10018"}, {"lat": 40.7413333, "lon": -73.9934036, "name": "Psychodynamic Yoga Therapy", "address": "64 W 21st St, New York, NY 10010"}, {"lat": 40.75482, "lon": -73.96973799999999, "name": "Bikram Yoga East", "address": "235 E 49th St, New York, NY 10022"}, {"lat": 40.7473758, "lon": -74.0505752, "name": "Spiritual Pretzels Yoga", "address": "Jersey City, NJ 07307"}, {"lat": 40.7459541, "lon": -73.9917122, "name": "Yoga To The People", "address": "115 W 27th St, New York, NY 10001"}, {"lat": 40.7921631, "lon": -73.97133269999999, "name": "Yoga For Two", "address": "175 W 93rd Street Apt 2H, New York, NY 10025"}, {"lat": 40.7337844, "lon": -74.0022238, "name": "Laughing Lotus Yoga Center", "address": "55 Christopher St, New York, NY 10014"}, {"lat": 40.72166360000001, "lon": -74.0004371, "name": "lululemon athletica", "address": "481 Broadway, New York, NY 10013"}, {"lat": 40.765838, "lon": -73.9796162, "name": "Circular Power", "address": "850 7th Avenue, New York, NY 10019"}, {"lat": 40.6805029, "lon": -73.96243270000001, "name": "Global Sound & Body", "address": "Brooklyn, NY 11238"}, {"lat": 40.781189, "lon": -73.9800358, "name": "Makom: The Center for Mindfulness at The JCC in Manhattan", "address": "334 Amsterdam Avenue, Manhattan, NY 10023"}, {"lat": 40.7829796, "lon": -73.9589706, "name": "Training with Bj?rn", "address": "Upper East Side, New York, NY 10184"}, {"lat": 40.6827212, "lon": -73.96713679999999, "name": "Gallim Dance", "address": "520 Clinton Ave, Brooklyn, NY 11238"}, {"lat": 40.724149, "lon": -74.001549, "name": "Bikram Yoga N Y C", "address": "150 Spring St Apt 2, New York, NY 10012"}, {"lat": 40.7868982, "lon": -73.97806829999999, "name": "Yoga To The People", "address": "2710 Broadway 3rd Fl, New York, NY 10025"}, {"lat": 40.683234, "lon": -73.992971, "name": "Area Emporium", "address": "252 Smith St, Brooklyn, NY 11231"}, {"lat": 40.742221, "lon": -73.9904449, "name": "Y7 Studio", "address": "25 W 23rd St, New York, NY 10010"}, {"lat": 40.7655864, "lon": -73.9633547, "name": "lululemon athletica", "address": "1127 3rd Ave, New York, NY 10065"}, {"lat": 40.6786755, "lon": -73.9503473, "name": "Pearson Pilates & Bodywork", "address": "1223 Atlantic Ave, Brooklyn, NY 11216"}, {"lat": 40.7469841, "lon": -74.02930140000001, "name": "Full Potential Yoga", "address": "824 Bloomfield St, Hoboken, NJ 07030"}, {"lat": 40.68796529999999, "lon": -73.9778245, "name": "Crunch", "address": "691 Fulton St, Brooklyn, NY 11217"}, {"lat": 40.7618103, "lon": -73.7922329, "name": "Sol Yoga & Wellness", "address": "189-27 39th Ave, Flushing, NY 11358"}, {"lat": 40.81203199999999, "lon": -74.214266, "name": "Be Evolution Yoga", "address": "18 Lackawanna Plaza, Montclair, NJ 07042"}, {"lat": 40.72672, "lon": -73.9921584, "name": "Akasha Studio", "address": "54 Great Jones St, New York, NY 10012"}, {"lat": 40.7999209, "lon": -73.96831019999999, "name": "Fitnescity", "address": "New York, NY 10025"}, {"lat": 40.7728753, "lon": -73.9812519, "name": "Karma Yoga Pilates", "address": "37 W 65th St, New York, NY 10023"}, {"lat": 40.7325089, "lon": -73.99172209999999, "name": "Charlotte Blake Pilates", "address": "80 E11st, New York, NY 10003"}, {"lat": 40.7204072, "lon": -74.04275070000001, "name": "Maximum Motion Fitness", "address": "340 Grove St, Jersey City, NJ 07302"}, {"lat": 40.7661206, "lon": -73.9071448, "name": "Divamukti Yoga", "address": "45-07 25th Ave, Astoria, NY 11103"}, {"lat": 40.75315820000001, "lon": -73.98079430000001, "name": "Skillful Living In", "address": "501 5th Avenue, New York, NY 10017"}, {"lat": 40.68695900000001, "lon": -73.99403099999999, "name": "Easeful Body Yoga Center", "address": "235 Warren Street, New York, NY 11201"}, {"lat": 40.7408856, "lon": -73.9961714, "name": "FITiST", "address": "130 W 19th St, Manhattan, NY 10011"}, {"lat": 40.6681669, "lon": -73.9800645, "name": "Training With Bjorn", "address": "Brooklyn, NY 11215"}, {"lat": 40.7605744, "lon": -73.9738917, "name": "Tao Yoga & Tai Chi", "address": "532 Madison Ave, New York, NY 10022"}, {"lat": 40.6212119, "lon": -74.03294989999999, "name": "Ally Yoga And Personal Training", "address": "Brooklyn, NY 11209"}, {"lat": 40.575166, "lon": -74.12078199999999, "name": "MRG Fitness Inc.", "address": "31 First St, Staten Island, NY 10306"}, {"lat": 40.7769059, "lon": -73.9800645, "name": "Lil Yogi?s NYC", "address": "New York, NY 10023"}, {"lat": 40.6009233, "lon": -73.977126, "name": "Evasana Yoga and Meditation", "address": "Brooklyn, NY 11223"}, {"lat": 40.7500175, "lon": -73.8613421, "name": "Mambo Fitness", "address": "104-08 Roosevelt Ave, Queens, NY 11368"}, {"lat": 40.7775623, "lon": -73.9815947, "name": "Practical Fitness Wellness", "address": "160 W 71 St, Manhattan, NY 10023"}, {"lat": 40.6127274, "lon": -73.9822449, "name": "Know Body?s Yoga", "address": "6627 Bay Pkwy, Brooklyn, NY 11204"}, {"lat": 40.7478472, "lon": -73.992491, "name": "Forever Young Sports Spa", "address": "171 West 29th St, New York, NY 10001"}, {"lat": 40.7788976, "lon": -73.982349, "name": "Bikram Yoga N Y C", "address": "208 W 72nd St Apt 1A, New York, NY 10023"},{"lat": 40.825436, "lon": -73.9749316, "name": "Ojas Yoga Center", "address": "880 River Rd, Edgewater, NJ 07020"}, {"lat": 40.7602536, "lon": -73.9649024, "name": "Zuke", "address": "245 E 58th St, Manhattan, NY 10022"}, {"lat": 40.7699653, "lon": -73.81486939999999, "name": "Maum Meditation", "address": "3202 150th Pl, Flushing, NY 11354"}, {"lat": 40.72740719999999, "lon": -73.99180270000001, "name": "Crunch", "address": "2 Cooper Square, New York, NY 10003"}, {"lat": 40.7937015, "lon": -74.19895369999999, "name": "Powerflow Yoga Bloomfield", "address": "71 Washington St, Bloomfield, NJ 07003"}, {"lat": 40.7363919, "lon": -73.9980059, "name": "Creative Yoga Therapy", "address": "101 W 12th St, Manhattan, NY 10011"}, {"lat": 40.8141021, "lon": -74.2193827, "name": "Boone Studio", "address": "40 Church St, Montclair, NJ 07042"}, {"lat": 40.826096, "lon": -73.99678569999999, "name": "Body & Brain Yoga", "address": "529 Bergen Blvd, Ridgefield, NJ 07657"}, {"lat": 40.828136, "lon": -74.102803, "name": "Hot Yoga & Pilates NJ", "address": "42 Park Ave, Rutherford, NJ 07070"}, {"lat": 40.7434614, "lon": -73.9891107, "name": "Susan Territo LMT, CYI", "address": "1123 Broadway, New York, NY 10010"}, {"lat": 40.76045, "lon": -73.9647447, "name": "Crunch", "address": "1109 2nd Ave, New York, NY 10022"}, {"lat": 40.8048648, "lon": -73.96701990000001, "name": "Ambron Mdanicia", "address": "600 W 111th St, New York, NY 10025"},{"lat": 40.810272, "lon": -73.9448652, "name": "Neighborhood Holistic", "address": "115 W 128th St, Manhattan, NY 10027"}, {"lat": 40.673791, "lon": -73.97440499999999, "name": "FLOWbody", "address": "842 Union St, Brooklyn, NY 11215"}, {"lat": 40.723589, "lon": -73.9533568, "name": "Williamsburg Wellness Center", "address": "42a Dobbin St, New York, NY 11222"}, {"lat": 40.7247678, "lon": -73.99638949999999, "name": "Zest for Life NYC", "address": "132 Crosby St, New York, NY 10012"},{"lat": 40.75686, "lon": -73.816469, "name": "Maha Sandhi Yoga Center", "address": "14659 Delaware Avenue, Flushing, NY 11355"}, {"lat": 40.7368061, "lon": -74.008554, "name": "Amayasana Yoga", "address": "55 Bethune St, New York, NY 10014"}, {"lat": 40.7274081, "lon": -74.00576869999999, "name": "Exubrancy", "address": "175 Varick St, New York, NY 10014"}, {"lat": 40.7643653, "lon": -73.8252482, "name": "Flushing Ultimate Champions Tae Kwon Do", "address": "141-20 Northern Blvd, Flushing, NY 11354"}, {"lat": 40.763605, "lon": -73.7701438, "name": "Bodh Gaya Kadampa", "address": "214-20 41st Ave, Bayside, NY 11361"}, {"lat": 40.736902, "lon": -73.98919099999999, "name": "Karuna NYC", "address": "200 Park Ave S, New York, NY 10003"}, {"lat": 40.7136487, "lon": -74.0087126, "name": "Karen Shelley Yoga", "address": "Brooklyn, NY 10007"}, {"lat": 40.7529216, "lon": -73.9926258, "name": "Compass Yoga", "address": "500 8th Avenue, Manhattan, NY 10001"}, {"lat": 40.52161539999999, "lon": -74.2346969, "name": "You Can Do It Yoga Center", "address": "105C Page Ave, Staten Island, NY 10309"}, {"lat": 40.8018663, "lon": -73.96743239999999, "name": "Children of Light Center For Personal Healing", "address": "2770 Broadway, New York, NY 10025"}, {"lat": 40.73587260000001, "lon": -73.9939717, "name": "Allowyoga", "address": "80 5th Ave 906, New York, NY 10003"}, {"lat": 40.723723, "lon": -73.9801904, "name": "Yoga High", "address": "638 E 6th St, New York, NY 10009"}, {"lat": 40.74585769999999, "lon": -74.25904969999999, "name": "South Mountain Yoga", "address": "18 S Orange Ave, South Orange, NJ 07079"}, {"lat": 40.7467444, "lon": -73.9820939, "name": "Crunch", "address": "4 Park Ave, New York, NY 10016"}, {"lat": 40.5221964, "lon": -74.21397329999999, "name": "Pure Blu Pilates and Yoga Studio", "address": "72 Sharrott Ave, Staten Island, NY 10309"}, {"lat": 40.7464969, "lon": -74.0094471, "name": "Tim Bish Wellness", "address": "New York, NY 10011"}, {"lat": 40.769888, "lon": -73.95340999999999, "name": "Breath of Hope Foundation", "address": "404 E 76th Street, New York, NY 10021"}, {"lat": 40.7367262, "lon": -73.9870258, "name": "Thai Leelawadee NYC", "address": "67 Irving Pl, New York, NY 10003"}, {"lat": 40.7405021, "lon": -73.9945208, "name": "Laughing Lotus Yoga Center", "address": "636 Avenue of the Americas, New York, NY 10011"}, {"lat": 40.789002, "lon": -73.9747, "name": "East West Rehabilitation Institute", "address": "202 W 88th St, New York, NY 10024"}, {"lat": 40.7418509, "lon": -73.999195, "name": "Movements Afoot", "address": "231 W 18th St, New York, NY 10011"}, {"lat": 40.8115781, "lon": -73.9142516, "name": "Revolutionary Fitness", "address": "450 St Anns Ave, Bronx, NY 10455"}, {"lat": 40.71832800000001, "lon": -73.95807099999999, "name": "Marisa Sullivan", "address": "143 N 7th St, Brooklyn, NY 11249"}, {"lat": 40.7404792, "lon": -74.0001448, "name": "Christopher Freimuth", "address": "West 16th St, New York, NY 10011"}, {"lat": 40.8837877, "lon": -73.9018061, "name": "East Coast United BJJ & MMA", "address": "5763 Broadway, Bronx, NY 10463"}, {"lat": 40.7464969, "lon": -74.0094471, "name": "Radiofarm Yoga", "address": "Manhattan, NY 10011"}, {"lat": 40.7436697, "lon": -73.98352129999999, "name": "Yoga Means Business", "address": "419 Park Ave S, New York, NY 10016"}, {"lat": 40.715532, "lon": -73.946732, "name": "Abhyasa Yoga Center", "address": "116 Skillman Ave, Brooklyn, NY 11211"}, {"lat": 40.7647357, "lon": -73.988042, "name": "Nirvana Temple Of Bliss", "address": "52nd St &amp; 9th Ave, New York, NY 10019"}, {"lat": 40.642983, "lon": -73.9790051, "name": "Lenny + Pilates", "address": "33 Beverley Rd, Brooklyn, NY 11218"}, {"lat": 40.7388319, "lon": -73.98153370000001, "name": "Lynn Crimando", "address": "New York, NY 10010"}, {"lat": 40.6797012, "lon": -73.982135, "name": "Studio Yada", "address": "339 Douglass St, Brooklyn, NY 11217"}, {"lat": 40.7665988, "lon": -73.9633118, "name": "The Bodysmith Co", "address": "167 East 67th St, New York, NY 10065"}, {"lat": 40.75419, "lon": -73.9917475, "name": "Healthy Progressions Yoga", "address": "265 W 37th St, New York, NY 10018"}, {"lat": 40.748798, "lon": -74.02814219999999, "name": "MiMi Kids Yoga", "address": "1001 Bloomfield St, Hoboken, NJ 07030"}, {"lat": 40.7501741, "lon": -73.9773555, "name": "Exhale Healing Arts", "address": "124 E 40th St, New York, NY 10016"}, {"lat": 40.714279, "lon": -73.949268, "name": "Healthy To The Core NYC", "address": "589 Metropolitan Ave, Brooklyn, NY 11211"}, {"lat": 40.7686973, "lon": -73.9918181, "name": "Justine Thorner - Yoga Instructor & Health Coach", "address": "New York, NY 10019"}, {"lat": 40.698867, "lon": -73.938096, "name": "Physical Culture Collective", "address": "857 Broadway, Brooklyn, NY 11206"}, {"lat": 40.6160745, "lon": -74.1382627, "name": "Trinity Training", "address": "268 Watchogue Rd, Staten Island, NY 10314"}, {"lat": 40.674097, "lon": -73.962763, "name": "Amayasana Yoga", "address": "759 Washington Ave, Brooklyn, NY 11238"}, {"lat": 40.6781784, "lon": -73.9441579, "name": "Keri Setaro Yoga Instructor", "address": "Brooklyn, NY"}, {"lat": 40.76119, "lon": -73.9837835, "name": "Ayurveda and Yoga", "address": "825 7th Ave, New York, NY 10019"}, {"lat": 40.6805029, "lon": -73.96243270000001, "name": "Aaron Angel Yoga", "address": "Brooklyn, NY 11238"}, {"lat": 40.87853399999999, "lon": -73.87233379999999, "name": "Soma Health Club", "address": "368 East Gun Hill Rd, Bronx, NY 10467"}, {"lat": 40.7162422, "lon": -73.94207519999999, "name": "Earth Wellness Yoga", "address": "188 Woodpoint Rd, Brooklyn, NY 11211"}, {"lat": 40.7385652, "lon": -74.00137629999999, "name": "Erin Lila Wilson", "address": "227 W 13th St, Manhattan, NY 10026"}, {"lat": 40.7312439, "lon": -73.9927271, "name": "New York Private Yoga", "address": "60 E 9th St, New York, NY 10003"}, {"lat": 40.9386864, "lon": -73.9621701, "name": "Coolhotyoga and Pilates", "address": "32 Piermont Rd, Cresskill, NJ 07626"}, {"lat": 40.7658676, "lon": -73.9824872, "name": "Russell Kordas L Ac Os Tigris P C", "address": "235 W 56th St, New York, NY 10019"}, {"lat": 40.826051, "lon": -73.98769589999999, "name": "Shine Yoga Center", "address": "639 Anderson Ave, Cliffside Park, NJ 07010"}, {"lat": 40.725846, "lon": -74.0021189, "name": "The Mitchell Method", "address": "107 Thompson St, New York, NY 10012"}, {"lat": 40.8861786, "lon": -73.90520529999999, "name": "Grounded Growth Yoga", "address": "3630 Waldo Ave, Riverdale, NY 10463"}, {"lat": 40.7686973, "lon": -73.9918181, "name": "Melinda Abbott Yoga", "address": "New York, NY 10019"}, {"lat": 40.7633868, "lon": -73.7708749, "name": "Theramotion Physical Therapy", "address": "41-06 Bell Blvd, Bayside, NY 11361"}, {"lat": 40.7127837, "lon": -74.0059413, "name": "Little Grasshopper Yoga", "address": "New York, NY"}, {"lat": 40.742812, "lon": -73.989926, "name": "Universal Force Healing Center", "address": "7 W 24th St, New York, NY 10010"}, {"lat": 40.771503, "lon": -73.960089, "name": "Soul Sister Fit", "address": "171 E 74th St, New York, NY 10010"}, {"lat": 40.665629, "lon": -73.987171, "name": "Beth Yoga-Prenatal Yoga Teacher", "address": "291 14th St, Brooklyn, NY 11215"}, {"lat": 40.7322535, "lon": -73.9874105, "name": "Seven Directions Yoga & Alternative Healing", "address": "NYC, NY 10003"}, {"lat": 40.5952146, "lon": -74.1827119, "name": "Anna?s Therapy", "address": "New York, NY 10314"}, {"lat": 40.7328158, "lon": -73.9897866, "name": "Crunch", "address": "113 4th Ave, New York, NY 10003"}, {"lat": 40.7830603, "lon": -73.9712488, "name": "Om Schooled", "address": "Manhattan, NY"}, {"lat": 40.7769059, "lon": -73.9800645, "name": "YOGASCAPES", "address": "New York, NY 10023"}, {"lat": 40.7769059, "lon": -73.9800645, "name": "Yogablossom", "address": "New York, NY 10023"}, {"lat": 40.677502, "lon": -73.9568725, "name": "Crow Hill CrossFit", "address": "1010 Dean St, Crown Heights, NY 11238"}, {"lat": 40.6534684, "lon": -73.9647707, "name": "Perfect Fit", "address": "123 Parkside Ave, Brooklyn, NY 11226"}, {"lat": 40.7525327, "lon": -73.9857932, "name": "Barefoot Tiger Rehearsal Space", "address": "1026 Sixth Ave, New York, NY 10018"}, {"lat": 40.75419, "lon": -73.9917475, "name": "Balance in Body", "address": "265 W 37th St, Manhattan, NY 10018"}, {"lat": 40.77301569999999, "lon": -73.95589989999999, "name": "Yoga With Elise", "address": "261 E 78th St, New York, NY 10075"}, {"lat": 40.643508, "lon": -73.960533, "name": "Yoga-reiki-unity", "address": "251 E 19 St, Brooklyn, NY 11226"}, {"lat": 40.673931, "lon": -73.915531, "name": "Rosie Yoga and Pilates", "address": "1974 Bergen St, Brooklyn, NY 11233"}, {"lat": 40.8505492, "lon": -73.9697949, "name": "Club Metro USA", "address": "1642 Schlosser St, Fort Lee, NJ 07024"}, {"lat": 40.8810397, "lon": -73.9185809, "name": "Emerge Athletics", "address": "2601 Henry Hudson Pkwy, Bronx, NY 10463"}, {"lat": 40.784913, "lon": -73.956172, "name": "Five Pillars Yoga", "address": "1298 Madison Ave, New York, NY 10128"}, {"lat": 40.8476465, "lon": -73.9983912, "name": "Bamboo Moves Palisades Park", "address": "261 Broad Ave, Palisades Park, NJ 07650"}, {"lat": 40.7686973, "lon": -73.9918181, "name": "Elite Performance", "address": "Manhattan, NY 10019"}, {"lat": 40.7394742, "lon": -73.98910699999999, "name": "Yoga Village NYC", "address": "22 E 21st St, New York, NY 10010"}, {"lat": 40.7067029, "lon": -74.0109622, "name": "YOGASMOGA", "address": "15 Broad St, New York, NY 10005"}, {"lat": 40.7172685, "lon": -73.95837689999999, "name": "Try Thai-Yoga", "address": "200 Bedford Ave, Brooklyn, NY 11211"}, {"lat": 40.814, "lon": -74.126891, "name": "Movement Journeys", "address": "289 Stuyvesant Ave, Lyndhurst, NJ 07071"}, {"lat": 40.84146, "lon": -74.20867799999999, "name": "Power Stretch Studios", "address": "255 Bellevue Avenue, Upper Montclair, NJ 07043"}, {"lat": 40.9017336, "lon": -74.0045229, "name": "Stone Center For Yoga & Health", "address": "1415 Queen Anne Rd, Teaneck, NJ 07666"}, {"lat": 40.8159688, "lon": -74.2198426, "name": "JaiPure Yoga", "address": "575 Bloomfield Ave, Montclair, NJ 07042"}, {"lat": 40.76729599999999, "lon": -74.029067, "name": "ASJ Wellness", "address": "2502 Palisade Ave, Weehawken, NJ 07086"}, {"lat": 40.7325089, "lon": -73.99172209999999, "name": "Breath & Bones", "address": "80 E 11th St, New York, NY 10003"}, {"lat": 40.7269561, "lon": -73.9952466, "name": "Yoga For Cancer Foundation", "address": "666 Broadway, New York, NY 10012"}, {"lat": 40.7250632, "lon": -73.9976946, "name": "Prananaz Corporate Wellness", "address": "New York, NY 10012"}, {"lat": 40.633784, "lon": -73.952361, "name": "Zen-To-Mend Community Center", "address": "2515 Glenwood Rd, Brooklyn, NY 11215"}, {"lat": 40.75368539999999, "lon": -73.9991637, "name": "At Ease Yoga", "address": "Manhattan, New York, NY 10001"}, {"lat": 40.6380353, "lon": -74.0738662, "name": "Yoga with Danielle", "address": "3 Victory Blvd, St. George, NY 10301"}, {"lat": 40.7359379, "lon": -73.9903934, "name": "Andrea Baptista - Yoga Instructor", "address": "Union Sq, New York, NY 10003"}, {"lat": 40.7399443, "lon": -73.9910549, "name": "Dwight Garcia Massage Therapy and Yoga", "address": "156 5th Ave, New York, NY 10010"}, {"lat": 35.20731, "lon": -113.772629, "name": "Shuai Jiao", "address": "118 N 11 St 3rd Fl, Brooklyn, NY 11211"}, {"lat": 40.7458912, "lon": -74.0370985, "name": "BFitBU", "address": "627 Madison St, Hoboken, NJ 07030"}, {"lat": 40.6655101, "lon": -73.8918897, "name": "Yobecca Yoga", "address": "Brooklyn, NY 11207"}, {"lat": 40.77872079999999, "lon": -73.9825935, "name": "Integral Yoga Teaching Center", "address": "200 W 72nd Street, New York, NY 10023"}, {"lat": 40.7127837, "lon": -74.0059413, "name": "Relax Already Yoga", "address": "New York, NY"}, {"lat": 40.8917754, "lon": -74.2124444, "name": "Serenity Yoga & Wellness Spa", "address": "1244 Mcbride Ave, Woodland Park, NJ 07424"}, {"lat": 40.7343495, "lon": -73.9910744, "name": "Max Men?s Yoga Shorts", "address": "841 Broadway, New York, NY 10003"}, {"lat": 40.742812, "lon": -73.989926, "name": "Universal Force Yoga", "address": "7 W 24th St, New York, NY 10010"}, {"lat": 40.74345, "lon": -73.991461, "name": "Johnson Chong Yoga", "address": "49 West 24th St, New York, NY 10010"}, {"lat": 40.7371162, "lon": -73.9906153, "name": "The Movement Forest", "address": "41 Union Square W, New York, NY 10003"}, {"lat": 40.7545206, "lon": -73.9942983, "name": "Snap Home Fitness", "address": "347 W 36th St, New York, NY 10018"}, {"lat": 40.782663, "lon": -73.981804, "name": "Kate Albarelli", "address": "270 W 77th St, New York, NY 10009"}, {"lat": 40.7826039, "lon": -73.9506774, "name": "Private Yoga with Jenny", "address": "New York, NY 10128"}, {"lat": 40.7217861, "lon": -74.0094471, "name": "Electroyoga", "address": "New York, NY 10013"}, {"lat": 40.769458, "lon": -73.7742729, "name": "The Studio At 3 Elements", "address": "34-36 Bell Blvd, Flushing, NY 11361"}, {"lat": 40.78288999999999, "lon": -73.973032, "name": "Dani Scher, LLC", "address": "25 W 81 St, New York, NY 10024"}, {"lat": 40.8476385, "lon": -74.2291549, "name": "Younique Yoga", "address": "410 Pompton Ave, Cedar Grove, NJ 07009"}, {"lat": 40.8165415, "lon": -73.9465592, "name": "Work Hard Train Harder Fitness and Wellness Center", "address": "301 W 135th St, New York, NY 10030"}, {"lat": 40.7801483, "lon": -73.959363, "name": "lululemon athletica", "address": "1146 Madison Ave, New York City, NY 10028"}, {"lat": 40.688819, "lon": -73.955951, "name": "Qoya Retreats", "address": "197 Clifton Pl, Brooklyn, NY 11205"}, {"lat": 40.7883967, "lon": -73.785422, "name": "Bonda Yoga West", "address": "208-52 Cross Island Pkwy, Bay Terrace, NY 11360"}, {"lat": 40.7238447, "lon": -73.6380425, "name": "Yoga Nanda", "address": "55 Hilton Ave, Garden City, NY 11530"}, {"lat": 40.65065600000001, "lon": -73.870659, "name": "Hiprana Yoga Belly Dance Brooklyn", "address": "395 Gateway Dr, Brooklyn, NY 11239"}, {"lat": 40.7105276, "lon": -73.8500028, "name": "Genesis Society Inc", "address": "10219 Metropolitan Ave, Forest Hills, NY 11375"}, {"lat": 40.7102011, "lon": -73.850686, "name": "Genesis Health & Beauty", "address": "102-02/06 Metropolitan Ave, Forest Hills, NY 11375"}, {"lat": 40.75368539999999, "lon": -73.9991637, "name": "Alison West Yoga Therapy", "address": "37 W 28th St, 4th Fl, New York, NY 10001"}, {"lat": 40.723723, "lon": -73.9801904, "name": "East Village Children?s Yoga & Theatre Workshop", "address": "638 E 6th St, New York, NY 10009"}, {"lat": 40.680056, "lon": -73.976584, "name": "Yoga For Creatives", "address": "33 Prospect Pl, Brooklyn, NY 11217"}, {"lat": 40.753406, "lon": -74.02971509999999, "name": "Crossfit Willow", "address": "1317 Willow Ave, Hoboken, NJ 07030"}, {"lat": 40.7524048, "lon": -73.9660299, "name": "Brahma Kumaris World Spiritual Organization", "address": "866 United Nations Plz, New York, NY 10017"}, {"lat": 40.7385652, "lon": -74.00137629999999, "name": "Lotus Light Cafe", "address": "227 W 13th St, New York, NY 10011"}, {"lat": 40.7075827, "lon": -74.0108283, "name": "Equinix", "address": "14 Wall St, New York, NY 10005"}, {"lat": 40.7844463, "lon": -73.9558382, "name": "Karen Yat", "address": "44 E 92nd St, New York, NY 10128"}, {"lat": 40.7481213, "lon": -73.993884, "name": "Panetta Movement Center", "address": "214 W 29th Street, New York, NY 10001"}, {"lat": 40.6380353, "lon": -74.0738662, "name": "Shakti Yoga", "address": "3 Victory Blvd., Staten Island, NY 10301"}, {"lat": 40.76433660000001, "lon": -73.7709515, "name": "Surfset Fitness At Spine and Soul", "address": "213-33 40th St, Bayside, NY 11361"}, {"lat": 40.7700703, "lon": -73.9580246, "name": "Yorkville Yoga", "address": "238 E 75th St, 1st Fl, New York, NY 10021"}, {"lat": 40.7812537, "lon": -73.97922319999999, "name": "Pure Yoga", "address": "341 Amsterdam Ave, New York, NY 10024"}, {"lat": 40.7322535, "lon": -73.9874105, "name": "Kristin Marbelle Full Circle Yoga New York", "address": "Manhattan, NY 10003"}, {"lat": 40.7447402, "lon": -73.9877798, "name": "Turner PR", "address": "246 5th Avenue, New York, NY 10001"}, {"lat": 40.760178, "lon": -73.83302599999999, "name": "Orient Retreat Yoga/Pilates Studio", "address": "37-20 Prince St, Queens, NY 11354"}, {"lat": 40.71465449999999, "lon": -74.035727, "name": "Michelle Timek Yoga", "address": "70 Greene St, Jersey City, NJ 07302"}, {"lat": 40.73992550000001, "lon": -73.9850622, "name": "Perfect Stride Yoga", "address": "125 E 23rd St, Manhattan, NY 10010"}, {"lat": 40.7659685, "lon": -73.96378980000001, "name": "Body & Brain Park East Yoga Tai Chi", "address": "168 E 66th St, New York, NY 10065"}, {"lat": 40.77106, "lon": -73.9105, "name": "Colors Of Wellness", "address": "23-39 37th St, Astoria, NY 11105"}, {"lat": 40.75368539999999, "lon": -73.9991637, "name": "Ayur Yoga School", "address": "New York, NY 10001"}, {"lat": 40.7214094, "lon": -73.98891569999999, "name": "Bikram?s Yoga College of India", "address": "172 Allen St 2nd Flr, New York, NY 10002"}, {"lat": 40.73587260000001, "lon": -73.9939717, "name": "Elise Constantine, LMT", "address": "80 5th Ave, New York, NY 10011"}, {"lat": 40.7535985, "lon": -73.9919802, "name": "Sahaja Meditation", "address": "520 Eight Ave, New York, NY 10018"}, {"lat": 40.651936, "lon": -73.978354, "name": "Holy Shift Yoga and Therapeutics with Lauren Ohayon", "address": "28 E 4th St, Windsor Terrace, NY 11218"}, {"lat": 40.75368539999999, "lon": -73.9991637, "name": "The Prana Studio", "address": "New York, NY 10001"}, {"lat": 40.7654964, "lon": -73.9631442, "name": "Exhale Spa", "address": "200 E 66th St, New York, NY 10065"}, {"lat": 40.6799458, "lon": -73.97543689999999, "name": "Brooklyn Wellness Collective", "address": "64 St Marks Ave, Brooklyn, NY 11217"}, {"lat": 40.774319, "lon": -73.96011200000001, "name": "Russell Kordas LAc Os Tigris", "address": "122 E 78th St, New York, NY 10021"}, {"lat": 40.7859464, "lon": -73.97418739999999, "name": "Practice Yoga", "address": "140 W 83rd St Frnt 4, New York, NY 10024"}, {"lat": 40.7388319, "lon": -73.98153370000001, "name": "PRIM Fitness", "address": "New York, NY 10010"}, {"lat": 40.7907207, "lon": -74.0582527, "name": "Divine Yoga & Wellness", "address": "1321 Paterson Plank Rd, Secaucus, NJ 07094"}, {"lat": 40.77664120000001, "lon": -73.9521468, "name": "Hari Nam Singh Khalsa", "address": "New York, NY 10028"}, {"lat": 40.797768, "lon": -74.12771699999999, "name": "Total Balance Pilates", "address": "42 5th St, North Arlington, NJ 07031"}, {"lat": 40.667229, "lon": -73.94060999999999, "name": "Bring The Gym to Me", "address": "1458 President St, Brooklyn, NY 11213"}, {"lat": 40.70817, "lon": -73.807712, "name": "Sarama Minoli Bio Nutritionist", "address": "14859 87th Ave, Jamaica, NY 11435"}, {"lat": 40.6781784, "lon": -73.9441579, "name": "Living Room Yoga", "address": "Brooklyn, NY"}, {"lat": 40.74727, "lon": -73.9800645, "name": "Om Hop Yoga: A Pop Up Yoga Studio", "address": "Manhattan, NY 10016"}, {"lat": 40.7769596, "lon": -73.9489069, "name": "Jain Meditation", "address": "401 E 86th St Apt 20A, New York, NY 10028"}, {"lat": 40.773985, "lon": -73.949955, "name": "MovingStrength", "address": "421 E 82nd St, New York, NY 10028"}, {"lat": 40.7709329, "lon": -73.73536399999999, "name": "Yoga Center", "address": "25111 Northern Blvd, Little Neck, NY 11362"}, {"lat": 40.8053846, "lon": -73.9917852, "name": "Brenda Blanco", "address": "115 River Rd, Edgewater, NJ 07020"}, {"lat": 40.789153, "lon": -73.979249, "name": "The Siddha Yoga Meditation Center", "address": "324 W 86th St, New York, NY 10024"}, {"lat": 40.8639624, "lon": -73.93304289999999, "name": "Rachel Bennett Yoga", "address": "New York, NY 10040"}, {"lat": 40.7608973, "lon": -73.80174439999999, "name": "Yoga Journey", "address": "164-03 Northern Blvd, Queens, NY 11358"}, {"lat": 40.70817, "lon": -73.807712, "name": "Nutrition For Life Distributor & Nutrition Cnsltnt", "address": "14859 87th Ave, Jamaica, NY 11435"}, {"lat": 40.7441666, "lon": -73.9895698, "name": "The Breathing Project", "address": "15 W 26th St, New York, NY 10010"}, {"lat": 40.7461573, "lon": -74.0356228, "name": "Hoboken Yoga", "address": "450 7th St, Hoboken, NJ 07030"}, {"lat": 40.8106882, "lon": -74.2139782, "name": "Yoga & Meditation Center Of Montclair", "address": "292 Bloomfield Ave, Montclair, NJ 07042"}, {"lat": 40.7830603, "lon": -73.9712488, "name": "Breathe-N-Stretch Yoga", "address": "Manhattan, NY"}, {"lat": 40.7830603, "lon": -73.9712488, "name": "Bloom Yoga NYC", "address": "Manhattan, NY"}, {"lat": 40.7441666, "lon": -73.9895698, "name": "The Breathing Project", "address": "15 W 26th St, New York, NY 10011"}, {"lat": 40.7700703, "lon": -73.9580246, "name": "Roaring Yogi", "address": "Riverrun playground, Manhattan, NY 10021"}, {"lat": 40.7465003, "lon": -73.9901538, "name": "Tao Meditation", "address": "830 6th Ave, New York, NY 10001"}, {"lat": 40.75368539999999, "lon": -73.9991637, "name": "Silva Mind Method of Ny Silva Mind Control", "address": "New York, NY 10001"}, {"lat": 40.7709272, "lon": -73.98057589999999, "name": "Writer?s Voice", "address": "5 W 63rd St, New York, NY 10023"}, {"lat": 40.859853, "lon": -73.8634299, "name": "FinerStudio", "address": "805 Astor Ave, East Bronx, NY 10467"}, {"lat": 40.7501741, "lon": -73.9773555, "name": "Kaori Stram Psychotherapy + Yoga", "address": "124 East 40th St, New York, NY 10016"}, {"lat": 40.8294767, "lon": -73.68348639999999, "name": "Yoga Life", "address": "939 Port Washington Blvd, Port Washington, NY 11050"}, {"lat": 40.657471, "lon": -74.2008649, "name": "Focus Solutions", "address": "645 Elizabeth Ave, Elizabeth, NJ 07206"}, {"lat": 40.7493076, "lon": -73.7549267, "name": "Flex Hot Yoga", "address": "22150 Horace Harding Expy, Bayside, NY 11364"}, {"lat": 40.8873904, "lon": -73.9050761, "name": "Bronx Barbell Club", "address": "451 W 238th St, Bronx, NY 10463"}, {"lat": 40.587031, "lon": -73.814623, "name": "Yoga On The Rocks", "address": "90-16 Rockaway Beach Blvd, Far Rockaway, NY 11693"}, {"lat": 40.70817, "lon": -73.807712, "name": "Nutrition For Life Distributor & Nutrition Consultant", "address": "14859 87th Avenue, Jamaica, NY 11435"}, {"lat": 40.7819041, "lon": -73.7710388, "name": "Laughing Buddha Yoga Studio", "address": "20852 Cross Island Pkwy, Bayside, NY 11360"}, {"lat": 40.7120313, "lon": -74.03899129999999, "name": "Hiking Yoga NJGoldCoast", "address": "155 Washington St, Jersey City, NJ 07302"}, {"lat": 40.6927182, "lon": -73.9597735, "name": "YvaYoga", "address": "285 Willoughby Ave, Bedford-Stuyvesant, NY 11205"}, {"lat": 40.7231279, "lon": -73.9533179, "name": "Wanderlust", "address": "26 Dobbin St, Greenpoint, NY 11222"}, {"lat": 40.8885483, "lon": -74.0203875, "name": "Rasayana Yoga Studio", "address": "396 Cedar Ln, Teaneck, NJ 07666"}, {"lat": 40.70817, "lon": -73.807712, "name": "Nutrition Express Dstrbtr & Health Consultant", "address": "14859 87th Ave, Jamaica, NY 11435"}, {"lat": 40.8100308, "lon": -74.2593706, "name": "Dahn Yoga", "address": "649 Eagle Rock Ave, West Orange, NJ 07052"}, {"lat": 40.594001, "lon": -74.09911, "name": "Exposure Dance Studio", "address": "1450 Richmond Rd, Staten Island, NY 10304"}, {"lat": 40.620408, "lon": -73.726007, "name": "Peaceful Presence Yoga Studio", "address": "436 Central Ave, Cedarhurst, NY 11516"}, {"lat": 40.79694, "lon": -73.701572, "name": "Lotus Rising Yoga", "address": "57 Hillside Ave, Manhasset, NY 11030"}, {"lat": 40.73586, "lon": -74.02922, "name": "Bend Bow Bridge Thai Bodywork", "address": "Hoboken, NJ 07030"}, {"lat": 40.79672, "lon": -73.6999, "name": "Yoga Flow on the Go", "address": "Manhasset, NY 11030"}, {"lat": 40.9159809, "lon": -73.9612164, "name": "Prana Coaching", "address": "1 Howard Park Dr, Tenafly, NJ 07670"}, {"lat": 40.802007, "lon": -73.736125, "name": "Simply Yoga", "address": "576 Middle Neck Rd, Great Neck, NY 11023"}, {"lat": 40.92051, "lon": -74.118948, "name": "Integral Yoga Institute", "address": "244 Broadway, Elmwood Park, NJ 07407"}, {"lat": 40.830879, "lon": -74.116111, "name": "The Goldshealthwellness", "address": "289 Carmita Ave, Rutherford, NJ 07070"}, {"lat": 40.7246789, "lon": -73.7038517, "name": "Massage & Yoga Om", "address": "143 Tulip Ave, Floral Park, NY 11001"}, {"lat": 40.8226321, "lon": -73.6270066, "name": "Yoga Flow Studio", "address": "977 Glen Cove Ave, Glen Head, NY 11545"}, {"lat": 40.6543901, "lon": -74.31947389999999, "name": "Nicole?s Yoga Center", "address": "94 North Ave, Garwood, NJ 07027"}, {"lat": 40.8034917, "lon": -73.6452484, "name": "Practice Body Mind Soul", "address": "1500 Old Northern Blvd, Roslyn, NY 11576"}, {"lat": 40.876824, "lon": -74.29454799999999, "name": "MadMat Yoga", "address": "180 Fairfield Rd, Fairfield, NJ 07004"}, {"lat": 40.8778225, "lon": -74.2418629, "name": "Nu-Yoga Studio", "address": "1376 Pompton Ave, Cedar Grove, NJ 07009"}, {"lat": 40.857579, "lon": -74.147735, "name": "D3 Dancenter", "address": "605 Van Houten Ave, Clifton, NJ 07013"}, {"lat": 40.644067, "lon": -73.65953499999999, "name": "Ocean Ave Yoga", "address": "510 Ocean Ave, East Rockaway, NY 11518"}, {"lat": 40.863561, "lon": -73.6298781, "name": "M.Y.W. Studio", "address": "50 Glen St, Glen Cove, NY 11542"}, {"lat": 40.6584212, "lon": -74.2995928, "name": "Bright Life Mama", "address": "Cranford, NJ 07016"}, {"lat": 40.9484955, "lon": -73.8319822, "name": "FitWalk", "address": "1 Lake Ave, Tuckahoe, NY 10707"}, {"lat": 40.9445597, "lon": -74.1400302, "name": "Integral Yoga Institute", "address": "21-03 Maple Ave, Fair Lawn, NJ 07410"}, {"lat": 40.6102693, "lon": -74.2918366, "name": "Aquarian Yoga", "address": "812 Central Ave, Westfield, NJ 07065"}, {"lat": 40.8177781, "lon": -74.1012975, "name": "Breakin? A Sweat LLP", "address": "301 Route 17 North, Rutherford, NJ 07070"}, {"lat": 40.84264, "lon": -74.281742, "name": "Iron Physical Therapy", "address": "474 Bloomfield Ave, Caldwell, NJ 07006"}, {"lat": 40.7245043, "lon": -73.7230077, "name": "Spiritual Awareness Center", "address": "245-06 Jericho Tpke, Floral Park, NY 11001"}, {"lat": 40.9318283, "lon": -73.7602101, "name": "Infinite Yoga Center", "address": "2 East Ave, Larchmont, NY 10538"}, {"lat": 40.818722, "lon": -74.216269, "name": "NJ Acupuncture Wellness & Fertility Center", "address": "70 Park St, Montclair, NJ 07042"}, {"lat": 40.651336, "lon": -74.34354499999999, "name": "My Om Town Yoga", "address": "231 Elmer St, Westfield, NJ 07090"}, {"lat": 40.99750359999999, "lon": -74.1087827, "name": "Room To Breathe", "address": "18 Sycamore Ave, Ho Ho Kus, NJ 07424"}, {"lat": 40.9944274, "lon": -73.88083449999999, "name": "Hastings Yoga", "address": "45 Main St, Hastings-on-Hudson, NY 10706"}, {"lat": 40.6229749, "lon": -73.704506, "name": "Yogabody", "address": "145 Woodmere Blvd S, Woodmere, NY 11598"}, {"lat": 40.92537249999999, "lon": -74.2765441, "name": "Happy Earth Yoga", "address": "Wayne, NJ 07470"}, {"lat": 40.8034917, "lon": -73.6452484, "name": "Integrated Fitness Solution", "address": "1500 Old Northern Blvd, Roslyn, NY 11576"}, {"lat": 40.430029, "lon": -74.108965, "name": "Asana Yoga + Dance", "address": "337 State Hwy 36, Port Monmouth, NJ 07758"}, {"lat": 40.9948866, "lon": -74.0354826, "name": "Powerflow Yoga", "address": "615 Broadway, Westwood, NJ 07675"}, {"lat": 40.6436654, "lon": -73.7050704, "name": "Pakua Long Island", "address": "1274 Peninsula Blvd, Hewlett, NY 11557"}, {"lat": 40.6579197, "lon": -73.671312, "name": "Bodynbrain Holistic Yoga", "address": "29 Hempstead Ave, Lynbrook, NY 11563"}, {"lat": 40.9791072, "lon": -74.11588239999999, "name": "Ridgewood Yoga Loft", "address": "170 E Ridgewood Ave, Ridgewood, NJ 07450"}, {"lat": 40.963522, "lon": -73.827868, "name": "YogaBright", "address": "367 Scarsdale Rd, Yonkers, NY 10707"}, {"lat": 40.651336, "lon": -74.34354499999999, "name": "Westfield Yoga & Pilates Cente", "address": "231 Elmer St Ste B, Westfield, NJ 07090"}, {"lat": 40.9922389, "lon": -74.1831754, "name": "Peaceful Yoga with MeriLynn Blum", "address": "585 Russell Ave, Wyckoff, NJ 07481"}, {"lat": 40.75931180000001, "lon": -74.4154879, "name": "Body & Brain Yoga", "address": "46 Main St, Madison, NJ 07940"}, {"lat": 40.7985811, "lon": -73.6612724, "name": "Bikram Yoga Roslyn", "address": "1062 Old Northern Blvd, Roslyn, NY 11576"}, {"lat": 40.7206203, "lon": -74.2690753, "name": "Shakti Yoga & Living Arts", "address": "1861 Springfield Ave, Maplewood, NJ 07040"}, {"lat": 40.9797766, "lon": -74.1183664, "name": "Vitality Fitness", "address": "61 E Ridgewood Ave, Ridgewood, NJ 07450"}, {"lat": 40.7177327, "lon": -74.3596271, "name": "Simplyoga Institute", "address": "428 Springfield Ave, Summit, NJ 07901"}, {"lat": 40.740914, "lon": -74.3826646, "name": "Powerflow Yoga", "address": "254 Main St, Chatham, NJ 07928"}, {"lat": 40.928916, "lon": -73.8414825, "name": "Bronxville Training by Design", "address": "1428 Midland Ave, Bronxville, NY 10708"}, {"lat": 40.8218887, "lon": -74.2198311, "name": "Aquarian Yoga Center", "address": "127 Valley Rd, Montclair, NJ 07042"}, {"lat": 40.7350747, "lon": -74.17390569999999, "name": "Newark Yoga Movement", "address": "Newark, NJ 07102"}, {"lat": 40.65858, "lon": -73.642414, "name": "Come Together", "address": "60 Maple Ave, Rockville Centre, NY 11570"}, {"lat": 40.7431706, "lon": -73.6561784, "name": "Body in Balance Yoga and Pilates", "address": "258 B Herricks Rd, Mineola, NY 11501"}, {"lat": 40.5881288, "lon": -73.66911379999999, "name": "Serenity Yoga", "address": "166 W Park Ave, Long Beach, NY 11561"}, {"lat": 40.7853748, "lon": -74.1494862, "name": "TNT Fitness Studio", "address": "135 Main St, Belleville, NJ 07109"}, {"lat": 40.8627453, "lon": -74.0560941, "name": "Gold?s Gym", "address": "100 Hollister Rd, Teterboro, NJ 07608"}, {"lat": 40.948462, "lon": -73.818252, "name": "Pilates Unleashed Mind Body Studio", "address": "274 White Plains Rd, Eastchester, NY 10707"}, {"lat": 40.5577654, "lon": -74.2812793, "name": "Balance Yoga", "address": "94 Green St, Woodbridge, NJ 07095"}, {"lat": 40.8405078, "lon": -74.276962, "name": "Indigo Yoga", "address": "355 Bloomfield Ave, Caldwell, NJ 07006"}, {"lat": 40.8004295, "lon": -73.701866, "name": "Manhasset Fitness Center", "address": "601 Plandome Rd, Manhasset, NY 11030"}, {"lat": 40.76729599999999, "lon": -74.029067, "name": "Gypsy Yogis", "address": "2502 Palisades Ave, Weehawken, NJ 07086"}, {"lat": 40.8958834, "lon": -74.2250931, "name": "Gold?s Gym", "address": "18 Furler St, Totowa, NJ 07512"}, {"lat": 40.898666, "lon": -73.9711279, "name": "IMX Pilates", "address": "155 N Dean St, Englewood, NJ 07631"}, {"lat": 40.947625, "lon": -73.693108, "name": "Wainwright House", "address": "260 Stuyvesant Ave, Rye, NY 10580"}, {"lat": 40.6467649, "lon": -74.3989361, "name": "The Yoga and Healing Center", "address": "1744 E 2nd St, Scotch Plains, NJ 07076"}, {"lat": 40.840172, "lon": -74.0024698, "name": "The Z Kids Club", "address": "825 Rt 5, Ridgefield, NJ 07657"}, {"lat": 40.9106615, "lon": -73.782468, "name": "Westchester Yoga Arts", "address": "49 Lawton St, New Rochelle, NY 10801"}, {"lat": 40.8529129, "lon": -73.9718357, "name": "Tribeca Pilates", "address": "2027 Center Ave, Fort Lee, NJ 07024"}, {"lat": 40.6491665, "lon": -74.3431229, "name": "Satsang Yoga Studio", "address": "50 South Ave W, Westfield, NJ 07090"}, {"lat": 40.9790029, "lon": -73.8072651, "name": "Yoga Haven 2", "address": "91 Montgomery Ave, Scarsdale, NY 10583"}, {"lat": 40.753721, "lon": -73.654009, "name": "Body & Brain Yoga", "address": "365 Hillside Ave., Mineola, NY 11596"}, {"lat": 40.7260129, "lon": -74.3733246, "name": "Benessere LLC", "address": "510 Morris St, Summit, NJ 07901"}, {"lat": 40.640102, "lon": -73.96866, "name": "Family Of Light, LLC", "address": "717 Coney Island Ave, Flatbush - Ditmas Park, NY 11218"}, {"lat": 40.648406, "lon": -74.3494466, "name": "Bikram Yoga Westfield", "address": "361 S Ave E, Westfield, NJ 07090"}, {"lat": 40.5881433, "lon": -73.6659358, "name": "Yoga Long Beach", "address": "54 W Park Ave, Long Beach, NY 11561"}, {"lat": 41.0029526, "lon": -74.0399442, "name": "Juluka Yoga Studio", "address": "394 Hillsdale Ave, Hillsdale, NJ 07642"}, {"lat": 40.9169853, "lon": -73.8086415, "name": "Prasanthi Studio", "address": "136 5th Ave, Pelham, NY 10803"}, {"lat": 40.5935753, "lon": -74.1868068, "name": "Prenatal & Postnatal Yoga Staten Island", "address": "3980 Victory Blvd, Staten Island, NY 10314"}, {"lat": 40.9255551, "lon": -73.9655082, "name": "Tenafly Shukokai Karate", "address": "17-19 Washington Street, Tenafly, NJ 07670"}, {"lat": 41.002177, "lon": -73.8136799, "name": "Body & Brain Westchester", "address": "590 Central Park Ave, Scarsdale, NY 10583"}, {"lat": 40.7305877, "lon": -74.2791173, "name": "Baker-Street-Yoga", "address": "97 Baker St, Maplewood, NJ 07040"}, {"lat": 40.6530864, "lon": -74.32483359999999, "name": "Hot Yoga Revolution", "address": "345 North Ave, Garwood, NJ 07027"}, {"lat": 40.8317592, "lon": -73.6890356, "name": "Om Sweet Om Yoga", "address": "12 Irma Ave, Port Washington, NY 11050"}, {"lat": 40.6501733, "lon": -74.3470626, "name": "Harmony Meditation Center", "address": "241 N Ave W, Westfield, NJ 07090"}, {"lat": 40.6567042, "lon": -73.6473314, "name": "Revolution Yoga", "address": "7 N Village Ave, Rockville Centre, NY 11570"}, {"lat": 40.72148199999999, "lon": -73.68869699999999, "name": "Body Works Yoga & Pilates Studio", "address": "57 Covert Ave, Floral Park, NY 11001"}, {"lat": 40.7600968, "lon": -73.6944221, "name": "Vivo Health Fitness", "address": "3 Delaware Dr, Lake Success, NY 11042"}, {"lat": 40.7271268, "lon": -74.0522601, "name": "World Boxing Gym", "address": "29 Division St, Jersey City, NJ 07302"}, {"lat": 40.8129485, "lon": -74.2583513, "name": "American Yoga Academy", "address": "350 Pleasant Valley Way, West Orange, NJ 07052"}, {"lat": 40.911929, "lon": -73.78223, "name": "Body & Brain Yoga", "address": "271 North Ave, New Rochelle, NY 10801"}, {"lat": 40.649913, "lon": -73.6331979, "name": "Yogi Stars", "address": "2488 Eileen Rd, Oceanside, NY 11572"}, {"lat": 40.8299632, "lon": -74.20625439999999, "name": "Yoga Desha", "address": "25 Watchung Plz, Montclair, NJ 07042"}, {"lat": 40.8945746, "lon": -74.2280207, "name": "Tighten Fitness", "address": "225 Rt 46 W, Totowa, NJ 07512"}, {"lat": 40.9735351, "lon": -74.1918017, "name": "Fire Shaper", "address": "33 Sicomac Rd, North Haledon, NJ 07508"}, {"lat": 40.721611, "lon": -74.083817, "name": "Gold?s Gym", "address": "859 Communipaw Ave, Jersey City, NJ 07304"}, {"lat": 40.4670763, "lon": -74.4075482, "name": "Yoga Dosha", "address": "215 Rt 18 S, East Brunswick, NJ 08816"}, {"lat": 40.6609773, "lon": -73.68585139999999, "name": "Synergy Fitness Club", "address": "640 Merrick Rd, Lynbrook, NY 11563"}, {"lat": 40.8848, "lon": -74.0088397, "name": "Z-Live", "address": "800 Broad St, Teaneck, NJ 07666"}, {"lat": 40.9333015, "lon": -74.07540879999999, "name": "IMX Pilates", "address": "205 Robin Rd, Paramus, NJ 07652"}, {"lat": 40.9860169, "lon": -74.16951569999999, "name": "BR Holistic Healing", "address": "525 Cedar Hill Ave, Wyckoff, NJ 07481"}, {"lat": 40.92182469999999, "lon": -73.7644909, "name": "Bikram Yoga Larchmont", "address": "2444 Boston Post Rd, Larchmont, NY 10538"}, {"lat": 40.6521803, "lon": -74.3230477, "name": "Moxie Pilates & Yoga", "address": "300 South Ave, Garwood, NJ 07027"}, {"lat": 41.0062942, "lon": -73.8107885, "name": "Bikram Yoga Scarsdale", "address": "450 Central Park Ave, Scarsdale, NY 10583"}, {"lat": 40.6888945, "lon": -73.6689045, "name": "Body & Brain Franklin Square", "address": "688 Dogwood Ave, Franklin Square, NY 11010"}, {"lat": 40.7183897, "lon": -74.32909889999999, "name": "Sunlight of the Spirit Yoga Studio", "address": "685 Morris Turnpike, Springfield Township, NJ 07081"}, {"lat": 40.99750359999999, "lon": -74.1087827, "name": "Ho-Ho-Kus Yoga", "address": "18 Sycamore Ave, Ho-Ho-Kus, NJ 07423"}, {"lat": 40.7936778, "lon": -73.693208, "name": "The Fitness Loft", "address": "1447 Northern Blvd, Manhasset, NY 11030"}, {"lat": 40.7069284, "lon": -73.6743864, "name": "Kashmir Hands", "address": "11 James St, Franklin Square, NY 11010"}, {"lat": 40.7372701, "lon": -74.0278735, "name": "Crunch", "address": "110 Sinatra Drive, Hoboken, NJ 07030"}, {"lat": 41.00747459999999, "lon": -74.3596862, "name": "Highland Yoga", "address": "1572 State Rt 23, Butler, NJ 07405"}, {"lat": 40.5889529, "lon": -73.659149, "name": "Kula Yoga", "address": "163 E Park Ave, Long Beach, NY 11561"}, {"lat": 40.717702, "lon": -74.3590289, "name": "Surya Yoga Academy", "address": "25 Maple St, Summit, NJ 07901"}, {"lat": 40.9523687, "lon": -73.7373046, "name": "YogaSpark", "address": "1 Depot Plz, Mamaroneck, NY 10543"}, {"lat": 40.925121, "lon": -73.965772, "name": "Fire Shaper", "address": "20 Washington St, Tenafly, NJ 07670"}, {"lat": 40.5882045, "lon": -73.66046, "name": "Bikram Yoga Long Beach", "address": "120 E Park Ave, Long Beach, NY 11561"}, {"lat": 40.85208970000001, "lon": -73.97231459999999, "name": "Pure Bliss Yoga", "address": "Center Ave, Fort Lee, NJ 07024"}, {"lat": 40.7472881, "lon": -73.62043249999999, "name": "Hot Yoga 4 You Carle Place", "address": "143 Voice Rd, Carle Place, NY 11514"}, {"lat": 40.840702, "lon": -73.714272, "name": "Kostal Paddle", "address": "Manorhaven Blvd, Port Washington, NY 11050"}, {"lat": 40.5862121, "lon": -73.6870829, "name": "Yoga Palms", "address": "803 W Beech St, Long Beach, NY 11561"}, {"lat": 40.946952, "lon": -74.0702639, "name": "Kids U", "address": "407 Sette Dr, Paramus, NJ 07652"}, {"lat": 40.9492466, "lon": -74.0676161, "name": "Gold?s Gym", "address": "49 E Midland Ave, Paramus, NJ 07652"}, {"lat": 40.4088898, "lon": -74.23388299999999, "name": "Yoga Suite", "address": "245 Main St, Matawan, NJ 07747"}, {"lat": 41.0118482, "lon": -73.7962226, "name": "Hot Yoga Journeys", "address": "218 E Hartsdale Ave, Hartsdale, NY 10530"}, {"lat": 41.0138555, "lon": -74.2551361, "name": "Yoga Haven", "address": "9 Post Rd, Oakland, NJ 07436"}, {"lat": 40.9631978, "lon": -74.133248, "name": "Naturally Yoga", "address": "175 Rock Rd Ste 3, Glen Rock, NJ 07452"}, {"lat": 40.865432, "lon": -74.28182, "name": "Brazen Athletics", "address": "18 Passaic Ave, Fairfield, NJ 07004"}, {"lat": 40.81713999999999, "lon": -74.39972100000001, "name": "Inner Spirit Studio", "address": "190 Rt 10 W, Whippany, NJ 07981"}, {"lat": 40.9824867, "lon": -73.9779047, "name": "Sukha Arts Center", "address": "76 Schraalenburgh Rd, Harrington Park, NJ 07640"}, {"lat": 40.772345, "lon": -74.35089099999999, "name": "All-Pro Health", "address": "381 Walnut St, Livingston, NJ 07039"}, {"lat": 40.7737436, "lon": -73.7334094, "name": "Body & Brain Great Neck", "address": "45 Northern Blvd, Great Neck, NY 11020"}, {"lat": 40.52523739999999, "lon": -74.30143079999999, "name": "JIVA Hot Yoga", "address": "259 New Brunswick Ave, Fords, NJ 08863"}, {"lat": 40.6736458, "lon": -73.8428314, "name": "Freestyle Fighting Fitness", "address": "93-02 Linden Blvd, Ozone Park, NY 11417"}, {"lat": 40.83183700000001, "lon": -74.244754, "name": "Verona Yoga and Wellness Center", "address": "546 Bloomfield Ave, Verona, NJ 07044"}, {"lat": 40.6524534, "lon": -74.3476149, "name": "Hapi Yogi", "address": "235 E Broad St, Westfield, NJ 07090"}, {"lat": 40.8136029, "lon": -74.2175054, "name": "Women Healing Zone", "address": "460 Bloomfield Ave, Montclair, NJ 07042"}, {"lat": 40.932459, "lon": -74.26821079999999, "name": "Powerflow Yoga", "address": "1428 Rt 23, Wayne, NJ 07470"}, {"lat": 40.8135401, "lon": -74.3646122, "name": "Healing Waves Yoga", "address": "East Hanover, NJ 07936"}, {"lat": 40.90714699999999, "lon": -73.87233599999999, "name": "Nueva Alma Yoga And Wellness", "address": "799 McLean Avenue, Yonkers, NY 10704"}, {"lat": 40.94999, "lon": -73.827178, "name": "Yoga Haven", "address": "62 Main St, Tuckahoe, NY 10707"}, {"lat": 40.72782369999999, "lon": -74.0436568, "name": "Hamilton Health & Fitness", "address": "161 Erie St, Jersey City, NJ 07302"}, {"lat": 40.8441681, "lon": -74.2365573, "name": "Starseed Yoga & Wellness", "address": "271 Grove Ave, Verona, NJ 07044"}, {"lat": 40.742221, "lon": -73.9904449, "name": "Karma Kids Yoga", "address": "25 W 23rd St, New York, NY 10011"}, {"lat": 40.779668, "lon": -73.983392, "name": "Prenatal Yoga Center", "address": "251 W 72nd St, New York, NY 10023"}, {"lat": 40.733075, "lon": -73.991478, "name": "Conquering Lion Yoga", "address": "815 Broadway, New York, NY 10003"}, {"lat": 40.9202154, "lon": -73.8678571, "name": "The Stretch Yoga", "address": "467 Central Park Ave, Yonkers, NY 10704"}, {"lat": 40.6559665, "lon": -73.645602, "name": "HotYoga4You RVC", "address": "274 Merrick Rd, Rockville Centre, NY 11570"}, {"lat": 40.9252568, "lon": -73.96365519999999, "name": "Flow Pilates Centre", "address": "10 Jay St, Tenafly, NJ 07670"}, {"lat": 40.626918, "lon": -74.314966, "name": "Heads & Tails Yoga", "address": "1049 Raritan Rd, Clark, NJ 07066"}, {"lat": 40.6397427, "lon": -74.3850894, "name": "Sacred Karma Yoga", "address": "222 South Ave, Fanwood, NJ 07023"}, {"lat": 40.6845496, "lon": -74.0002501, "name": "Brooklyn Yoga Project", "address": "185 Sackett St, Carroll Gardens, NY 11231"}, {"lat": 40.90973280000001, "lon": -73.7809596, "name": "Premier Pilates & Yoga", "address": "200 North Ave, New Rochelle, NY 10801"}, {"lat": 40.7876492, "lon": -73.7274652, "name": "Bonda Yoga East", "address": "4A Bond St, Great Neck, NY 11021"}, {"lat": 41.004299, "lon": -74.1174401, "name": "Flow Yoga Studio", "address": "22 Hollywood Ave, Ho-Ho-Kus, NJ 07423"}, {"lat": 40.7911417, "lon": -74.31326159999999, "name": "Powerflow Yoga Livingston", "address": "155 S. Livingston Ave, Livingston, NJ 07039"}, {"lat": 40.646845, "lon": -74.348506, "name": "Health in Motion", "address": "524 Westfield Ave, Westfield, NJ 07090"}, {"lat": 40.9182278, "lon": -74.07815, "name": "lululemon athletica", "address": "100 Garden State Plaza, Paramus, NJ 07652"}]